[{"feature":"PPLC","type":"N","lat":12.516667,"lon":-70.033333,"abbr":"ORANJESTAD","name":"Oranjestad"},
{"feature":"PPLC","type":"V","lat":12.516667,"lon":-70.033333,"abbr":"PLAYA","name":"Playa"},
{"feature":"PPLC","type":"N","lat":17.116667,"lon":-61.85,"abbr":"SAINTJOHNS","name":"Saint John's"},
{"feature":"PPLC","type":"V","lat":17.116667,"lon":-61.85,"abbr":"SAINTJOHN","name":"Saint John"},
{"feature":"PPLC","type":"C","lat":24.466667,"lon":54.366667,"abbr":"ABUDHABI","name":"Abu Dhabi"},
{"feature":"PPLC","type":"V","lat":24.466667,"lon":54.366667,"abbr":"ABUDABI","name":"Abu Dabi"},
{"feature":"PPLC","type":"V","lat":24.466667,"lon":54.366667,"abbr":"ABUZABYO","name":"Abu Zabyo"},
{"feature":"PPLC","type":"NS","lat":24.466667,"lon":54.366667,"abbr":"أبوظبي","name":"أبوظبي"},
{"feature":"PPLC","type":"V","lat":24.466667,"lon":54.366667,"abbr":"ABUZABYE","name":"Abu Zabye"},
{"feature":"PPLC","type":"V","lat":24.466667,"lon":54.366667,"abbr":"ABUZABI","name":"Abu Zabi"},
{"feature":"PPLC","type":"N","lat":24.466667,"lon":54.366667,"abbr":"ABUZABY","name":"Abu Zaby"},
{"feature":"PPLA2","type":"NS","lat":32.983334,"lon":67.965167,"abbr":"سرفرازکلا","name":"سرفراز کلا"},
{"feature":"PPLA2","type":"V","lat":32.983334,"lon":67.965167,"abbr":"QALAHYESARFIRAZ","name":"Qal'ah-ye Sar Firaz"},
{"feature":"PPLA2","type":"VS","lat":32.983334,"lon":67.965167,"abbr":"قلعهسرفراز","name":"قلعه سر فراز"},
{"feature":"PPLA2","type":"V","lat":32.983334,"lon":67.965167,"abbr":"SARFERAZKALA","name":"Sarferaz Kala"},
{"feature":"PPLA2","type":"V","lat":32.983334,"lon":67.965167,"abbr":"SARFIRAZKALA","name":"Sarfirazkala"},
{"feature":"PPLA2","type":"N","lat":32.983334,"lon":67.965167,"abbr":"SARFIRAZKALA","name":"Sarfiraz Kala"},
{"feature":"PPLA2","type":"V","lat":34.760091,"lon":71.047376,"abbr":"NARANG","name":"Narang"},
{"feature":"PPLA2","type":"NS","lat":34.760091,"lon":71.047376,"abbr":"نرنگ","name":"نرنگ"},
{"feature":"PPLA2","type":"N","lat":34.760091,"lon":71.047376,"abbr":"NARANG","name":"Narang"},
{"feature":"PPLA2","type":"N","lat":34.953598,"lon":70.778974,"abbr":"KANDAY","name":"Kanday"},
{"feature":"PPLA2","type":"VS","lat":34.953598,"lon":70.778974,"abbr":"كندی","name":"كندی"},
{"feature":"PPLA2","type":"NS","lat":34.953598,"lon":70.778974,"abbr":"کنډی","name":"کنډی"},
{"feature":"PPLA2","type":"V","lat":34.953598,"lon":70.778974,"abbr":"KANDAY","name":"Kanday"},
{"feature":"PPLA2","type":"VS","lat":34.919136,"lon":71.098633,"abbr":"وتپور","name":"وتپور"},
{"feature":"PPLA2","type":"V","lat":34.919136,"lon":71.098633,"abbr":"WOTAPUR","name":"Wotapur"},
{"feature":"PPLA2","type":"NS","lat":34.919136,"lon":71.098633,"abbr":"وټهپور","name":"وټه پور"},
{"feature":"PPLA2","type":"V","lat":34.919136,"lon":71.098633,"abbr":"WATAHPUR","name":"Watahpur"},
{"feature":"PPLA2","type":"N","lat":34.919136,"lon":71.098633,"abbr":"WUTAHPUR","name":"Wutahpur"},
{"feature":"PPLA2","type":"V","lat":34.919136,"lon":71.098633,"abbr":"VOTAPUR","name":"Votapur"},
{"feature":"PPLA2","type":"N","lat":34.990152,"lon":70.913015,"abbr":"MANOGAY","name":"Manogay"},
{"feature":"PPLA2","type":"NS","lat":34.990152,"lon":70.913015,"abbr":"ماڼوگی","name":"ماڼوگی"},
{"feature":"PPLA2","type":"V","lat":34.990152,"lon":70.913015,"abbr":"MANUGAY","name":"Manugay"},
{"feature":"PPLA2","type":"V","lat":34.990152,"lon":70.913015,"abbr":"MANOGAY","name":"Manogay"},
{"feature":"PPLA2","type":"VS","lat":34.990152,"lon":70.913015,"abbr":"مانوگی","name":"مانوگی"},
{"feature":"PPLA2","type":"V","lat":34.692459,"lon":70.92688,"abbr":"CHAUKI","name":"Chauki"},
{"feature":"PPLA2","type":"V","lat":34.692459,"lon":70.92688,"abbr":"CHOWKI","name":"Chowki"},
{"feature":"PPLA2","type":"V","lat":34.692459,"lon":70.92688,"abbr":"CHOWKEY","name":"Chowkey"},
{"feature":"PPLA2","type":"V","lat":34.692459,"lon":70.92688,"abbr":"CHAUKAI","name":"Chaukai"},
{"feature":"PPLA2","type":"VS","lat":34.692459,"lon":70.92688,"abbr":"چوكی","name":"چوكی"},
{"feature":"PPLA2","type":"V","lat":34.692459,"lon":70.92688,"abbr":"CAWKAE","name":"Cawkae"},
{"feature":"PPLA2","type":"V","lat":34.692459,"lon":70.92688,"abbr":"CAWKAY","name":"Cawkay"},
{"feature":"PPLA2","type":"V","lat":34.692459,"lon":70.92688,"abbr":"CHOWKAY","name":"Chowkay"},
{"feature":"PPLA2","type":"NS","lat":34.692459,"lon":70.92688,"abbr":"څوکۍ","name":"څوکۍ"},
{"feature":"PPLA2","type":"N","lat":34.692459,"lon":70.92688,"abbr":"TSOWKEY","name":"Tsowkey"},
{"feature":"PPLA2","type":"N","lat":35.033328,"lon":71.358087,"abbr":"ASMAR","name":"Asmar"},
{"feature":"PPLA2","type":"VS","lat":35.033328,"lon":71.358087,"abbr":"اسمار","name":"اسمار"},
{"feature":"PPLA2","type":"V","lat":35.033328,"lon":71.358087,"abbr":"ASMAR","name":"Asmar"},
{"feature":"PPLA2","type":"V","lat":35.033328,"lon":71.358087,"abbr":"ASMA","name":"Asma"},
{"feature":"PPLA2","type":"V","lat":35.033328,"lon":71.358087,"abbr":"ASMAR","name":"Asmar"},
{"feature":"PPLA2","type":"NS","lat":35.033328,"lon":71.358087,"abbr":"آسمار","name":"آسمار"},
{"feature":"PPLA2","type":"V","lat":31.983034,"lon":67.335581,"abbr":"KHUKUMATISHINKAY","name":"Khukumati-Shinkay"},
{"feature":"PPLA2","type":"V","lat":31.983034,"lon":67.335581,"abbr":"HOKUMATESHINKAY","name":"Hokumat-e Shinkay"},
{"feature":"PPLA2","type":"N","lat":31.983034,"lon":67.335581,"abbr":"HUKUMATESHINKAI","name":"Hukumat-e Shinkai"},
{"feature":"PPLA2","type":"V","lat":31.983034,"lon":67.335581,"abbr":"HOKUMATESINKAY","name":"Hokumate Sinkay"},
{"feature":"PPLA2","type":"VS","lat":31.983034,"lon":67.335581,"abbr":"شینکی","name":"شینکی"},
{"feature":"PPLA2","type":"V","lat":31.983034,"lon":67.335581,"abbr":"SHINKAI","name":"Shinkai"},
{"feature":"PPLA2","type":"V","lat":31.983034,"lon":67.335581,"abbr":"HUKUMATESHINKAY","name":"Hukumat-e Shinkay"},
{"feature":"PPLA2","type":"NS","lat":31.983034,"lon":67.335581,"abbr":"حکومتشینکی","name":"حکومت شینکی"},
{"feature":"PPLA2","type":"N","lat":34.387949,"lon":67.023273,"abbr":"PANJAB","name":"Panjab"},
{"feature":"PPLA2","type":"NS","lat":34.387949,"lon":67.023273,"abbr":"پنجاب","name":"پنجاب"},
{"feature":"PPLA2","type":"V","lat":34.387949,"lon":67.023273,"abbr":"PANJAW","name":"Panjaw"},
{"feature":"PPLA2","type":"V","lat":34.387949,"lon":67.023273,"abbr":"PANJAO","name":"Panjao"},
{"feature":"PPLA2","type":"V","lat":34.387949,"lon":67.023273,"abbr":"PANDZHAU","name":"Pandzhau"},
{"feature":"PPLA2","type":"N","lat":35.958063,"lon":67.279983,"abbr":"DEHI","name":"Dehi"},
{"feature":"PPLA2","type":"NS","lat":35.958063,"lon":67.279983,"abbr":"دهی","name":"دهی"},
{"feature":"PPLA2","type":"N","lat":35.297298,"lon":69.681252,"abbr":"KIRAMAN","name":"Kiraman"},
{"feature":"PPLA2","type":"V","lat":35.297298,"lon":69.681252,"abbr":"KIRAMAN","name":"Kiraman"},
{"feature":"PPLA2","type":"V","lat":35.297298,"lon":69.681252,"abbr":"KERAMAN","name":"Keraman"},
{"feature":"PPLA2","type":"VS","lat":35.297298,"lon":69.681252,"abbr":"КИРАМАН","name":"Кираман"},
{"feature":"PPLA2","type":"NS","lat":35.297298,"lon":69.681252,"abbr":"کرامان","name":"کرامان"},
{"feature":"PPLA2","type":"V","lat":35.623977,"lon":70.005106,"abbr":"NOWDANAK","name":"Now Danak"},
{"feature":"PPLA2","type":"VS","lat":35.623977,"lon":70.005106,"abbr":"نودانک","name":"نو دانک"},
{"feature":"PPLA2","type":"N","lat":35.623977,"lon":70.005106,"abbr":"NOWDAHANAK","name":"Now Dahanak"},
{"feature":"PPLA2","type":"V","lat":35.623977,"lon":70.005106,"abbr":"NAVADANAK","name":"Navadanak"},
{"feature":"PPLA2","type":"V","lat":35.623977,"lon":70.005106,"abbr":"NAWDANAK","name":"Nawdanak"},
{"feature":"PPLA2","type":"NS","lat":35.623977,"lon":70.005106,"abbr":"نودهانک","name":"نو دهانک"},
{"feature":"PPLA2","type":"V","lat":35.623977,"lon":70.005106,"abbr":"NAWDANAK","name":"Naw Danak"},
{"feature":"PPLA2","type":"V","lat":33.203568,"lon":65.473112,"abbr":"KADZHIRAN","name":"Kadzhiran"},
{"feature":"PPLA2","type":"VS","lat":33.203568,"lon":65.473112,"abbr":"КАДЖИРАН","name":"Каджиран"},
{"feature":"PPLA2","type":"N","lat":33.203568,"lon":65.473112,"abbr":"KAJRAN","name":"Kajran"},
{"feature":"PPLA2","type":"NS","lat":33.203568,"lon":65.473112,"abbr":"کجران","name":"کجران"},
{"feature":"PPLA2","type":"V","lat":33.203568,"lon":65.473112,"abbr":"KAJIRAN","name":"Kajiran"},
{"feature":"PPLA2","type":"NS","lat":35.319992,"lon":67.633871,"abbr":"رویسنگ","name":"روی سنگ"},
{"feature":"PPLA2","type":"N","lat":35.319992,"lon":67.633871,"abbr":"RUYESANG","name":"Ru-ye Sang"},
{"feature":"PPLA2","type":"V","lat":35.319992,"lon":67.633871,"abbr":"ROYSANG","name":"Roysang"},
{"feature":"PPLA2","type":"V","lat":35.319992,"lon":67.633871,"abbr":"RUISANG","name":"Ruisang"},
{"feature":"PPLA2","type":"V","lat":35.319992,"lon":67.633871,"abbr":"RUYSANG","name":"Ruy Sang"},
{"feature":"PPLA2","type":"V","lat":33.38278,"lon":66.272331,"abbr":"CHAWNAY","name":"Chawnay"},
{"feature":"PPLA2","type":"V","lat":33.38278,"lon":66.272331,"abbr":"CAWNAY","name":"Cawnay"},
{"feature":"PPLA2","type":"N","lat":33.38278,"lon":66.272331,"abbr":"CHOWNEY","name":"Chowney"},
{"feature":"PPLA2","type":"NS","lat":33.38278,"lon":66.272331,"abbr":"چوڼۍ","name":"چوڼۍ"},
{"feature":"PPLA2","type":"V","lat":34.061826,"lon":66.278014,"abbr":"QOCHANGHI","name":"Qochanghi"},
{"feature":"PPLA2","type":"VS","lat":34.061826,"lon":66.278014,"abbr":"قوچنغی","name":"قوچنغی"},
{"feature":"PPLA2","type":"V","lat":34.061826,"lon":66.278014,"abbr":"QOCANGLI","name":"Qocangli"},
{"feature":"PPLA2","type":"N","lat":34.061826,"lon":66.278014,"abbr":"QUCHANGHI","name":"Quchanghi"},
{"feature":"PPLA2","type":"V","lat":34.061826,"lon":66.278014,"abbr":"QOCHANGHI","name":"Qochanghi"},
{"feature":"PPLA2","type":"V","lat":34.061826,"lon":66.278014,"abbr":"QOCANGHI","name":"Qocanghi"},
{"feature":"PPLA2","type":"V","lat":34.061826,"lon":66.278014,"abbr":"KUCHANGI","name":"Kuchangi"},
{"feature":"PPLA2","type":"V","lat":34.061826,"lon":66.278014,"abbr":"QOCHANGI","name":"Qochangi"},
{"feature":"PPLA2","type":"NS","lat":34.061826,"lon":66.278014,"abbr":"قچنغی","name":"قچنغی"},
{"feature":"PPLA2","type":"NS","lat":35.109218,"lon":69.433412,"abbr":"حاجیخېل","name":"حاجی خېل"},
{"feature":"PPLA2","type":"N","lat":35.109218,"lon":69.433412,"abbr":"HAJIKHEL","name":"Haji Khel"},
{"feature":"PPLA2","type":"V","lat":35.109218,"lon":69.433412,"abbr":"HAJIKHEL","name":"Hajikhel"},
{"feature":"PPLA2","type":"V","lat":35.109218,"lon":69.433412,"abbr":"HAJJIKHEYL","name":"Hajjikheyl"},
{"feature":"PPLA2","type":"V","lat":35.109218,"lon":69.433412,"abbr":"KHADZHIKHEYL","name":"Khadzhikheyl'"},
{"feature":"PPLA2","type":"VS","lat":35.109218,"lon":69.433412,"abbr":"حاجیخيل","name":"حاجی خيل"},
{"feature":"PPLA2","type":"NS","lat":34.877061,"lon":68.087903,"abbr":"بلوله","name":"بلوله"},
{"feature":"PPLA2","type":"N","lat":34.877061,"lon":68.087903,"abbr":"BULOLAH","name":"Bulolah"},
{"feature":"PPLA2","type":"V","lat":34.877061,"lon":68.087903,"abbr":"BOLOLA","name":"Bolola"},
{"feature":"PPLA2","type":"V","lat":34.877061,"lon":68.087903,"abbr":"BOLOWLEH","name":"Bolowleh"},
{"feature":"PPLA2","type":"V","lat":34.877061,"lon":68.087903,"abbr":"BOLULEH","name":"Boluleh"},
{"feature":"PPLA2","type":"V","lat":34.877061,"lon":68.087903,"abbr":"BULOLA","name":"Bulola"},
{"feature":"PPLA2","type":"NS","lat":33.50998,"lon":65.676323,"abbr":"سرتیغان","name":"سر تیغان"},
{"feature":"PPLA2","type":"N","lat":33.50998,"lon":65.676323,"abbr":"SARETAYGHAN","name":"Sar-e Tayghan"},
{"feature":"PPLA2","type":"V","lat":33.50998,"lon":65.676323,"abbr":"SARTEGHAN","name":"Sar Teghan"},
{"feature":"PPLA2","type":"N","lat":33.922324,"lon":65.93398,"abbr":"KHADIR","name":"Khadir"},
{"feature":"PPLA2","type":"NS","lat":33.922324,"lon":65.93398,"abbr":"خدیر","name":"خدیر"},
{"feature":"PPLA2","type":"N","lat":35.562772,"lon":67.821912,"abbr":"DUAB","name":"Duab"},
{"feature":"PPLA2","type":"V","lat":35.562772,"lon":67.821912,"abbr":"TATAR","name":"Tatar"},
{"feature":"PPLA2","type":"NS","lat":35.562772,"lon":67.821912,"abbr":"دواب","name":"دواب"},
{"feature":"PPLA2","type":"VS","lat":35.562772,"lon":67.821912,"abbr":"تاتار","name":"تاتار"},
{"feature":"PPLA2","type":"V","lat":35.562772,"lon":67.821912,"abbr":"DOWABESHAHPASAND","name":"Dow Ab-e Shah Pasand"},
{"feature":"PPLA2","type":"V","lat":35.562772,"lon":67.821912,"abbr":"DOABISHAHPASAND","name":"Doab-i-Shahpasand"},
{"feature":"PPLA2","type":"V","lat":35.562772,"lon":67.821912,"abbr":"DOAB","name":"Do Ab"},
{"feature":"PPLA2","type":"V","lat":35.562772,"lon":67.821912,"abbr":"TATAR","name":"Tatar"},
{"feature":"PPLA2","type":"V","lat":35.994741,"lon":68.050808,"abbr":"QARYAHYELANGAR","name":"Qaryah-ye Langar"},
{"feature":"PPLA2","type":"VS","lat":35.994741,"lon":68.050808,"abbr":"قريهلنگر","name":"قريه لنگر"},
{"feature":"PPLA2","type":"N","lat":35.994741,"lon":68.050808,"abbr":"LANGAR","name":"Langar"},
{"feature":"PPLA2","type":"NS","lat":35.994741,"lon":68.050808,"abbr":"لنگر","name":"لنگر"},
{"feature":"PPLA2","type":"N","lat":35.428982,"lon":69.734823,"abbr":"KHINJ","name":"Khinj"},
{"feature":"PPLA2","type":"VS","lat":35.428982,"lon":69.734823,"abbr":"ХИНДЖ","name":"Хиндж"},
{"feature":"PPLA2","type":"V","lat":35.428982,"lon":69.734823,"abbr":"KHINDZH","name":"Khindzh"},
{"feature":"PPLA2","type":"V","lat":35.428982,"lon":69.734823,"abbr":"KHENJ","name":"Khenj"},
{"feature":"PPLA2","type":"NS","lat":35.428982,"lon":69.734823,"abbr":"خنج","name":"خنج"},
{"feature":"PPLA2","type":"V","lat":34.734141,"lon":66.952921,"abbr":"NAYAK","name":"Nayak"},
{"feature":"PPLA2","type":"VS","lat":34.734141,"lon":66.952921,"abbr":"نايک","name":"نايک"},
{"feature":"PPLA2","type":"V","lat":34.734141,"lon":66.952921,"abbr":"NAIK","name":"Naik"},
{"feature":"PPLA2","type":"V","lat":34.734141,"lon":66.952921,"abbr":"NAIAK","name":"Naiak"},
{"feature":"PPLA2","type":"V","lat":34.734141,"lon":66.952921,"abbr":"NEYAK","name":"Neyak"},
{"feature":"PPLA2","type":"N","lat":34.734141,"lon":66.952921,"abbr":"NAYAK","name":"Nayak"},
{"feature":"PPLA2","type":"NS","lat":34.734141,"lon":66.952921,"abbr":"نيک","name":"نيک"},
{"feature":"PPLA2","type":"N","lat":34.8965,"lon":69.72049,"abbr":"ALAHSAY","name":"Alah Say"},
{"feature":"PPLA2","type":"VS","lat":35.178346,"lon":67.687582,"abbr":"خدادادخېل","name":"خدا داد خېل"},
{"feature":"PPLA2","type":"N","lat":35.178346,"lon":67.687582,"abbr":"KHUDAYDADKHEL","name":"Khudaydad Khel"},
{"feature":"PPLA2","type":"NS","lat":35.178346,"lon":67.687582,"abbr":"خدایدادخېل","name":"خدایداد خېل"},
{"feature":"PPLA2","type":"V","lat":35.178346,"lon":67.687582,"abbr":"KHODAYDADKHEYL","name":"Khodaydad Kheyl"},
{"feature":"PPLA2","type":"V","lat":35.178346,"lon":67.687582,"abbr":"KHODAYDADKHEL","name":"Khodaydad Khel"},
{"feature":"PPLA2","type":"V","lat":35.178346,"lon":67.687582,"abbr":"KHODAYDADKHEL","name":"Khodaydadkhel"},
{"feature":"PPLA2","type":"V","lat":35.178346,"lon":67.687582,"abbr":"KHUDADADKHEL","name":"Khuda Dad Khel"},
{"feature":"PPLA2","type":"V","lat":34.8965,"lon":69.72049,"abbr":"ALASAY","name":"Alasay"},
{"feature":"PPLA2","type":"V","lat":34.8965,"lon":69.72049,"abbr":"ALASAY","name":"Alasay"},
{"feature":"PPLA2","type":"VS","lat":34.8965,"lon":69.72049,"abbr":"شيلۀاله","name":"شيلۀ اله"},
{"feature":"PPLA2","type":"NS","lat":34.8965,"lon":69.72049,"abbr":"الهسای","name":"اله سای"},
{"feature":"PPLA2","type":"N","lat":34.212228,"lon":62.212353,"abbr":"GUZARAH","name":"Guzarah"},
{"feature":"PPLA2","type":"NS","lat":34.212228,"lon":62.212353,"abbr":"گذره","name":"گذره"},
{"feature":"PPLA2","type":"V","lat":34.212228,"lon":62.212353,"abbr":"GOZAREH","name":"Gozareh"},
{"feature":"PPLA2","type":"V","lat":34.212228,"lon":62.212353,"abbr":"GOZARA","name":"Gozara"},
{"feature":"PPLA2","type":"N","lat":36.866667,"lon":70.383333,"abbr":"DARAYIM","name":"Darayim"},
{"feature":"PPLA2","type":"NS","lat":36.866667,"lon":70.383333,"abbr":"درايم","name":"درايم"},
{"feature":"PPLA2","type":"V","lat":36.866667,"lon":70.383333,"abbr":"DARAIM","name":"Daraim"},
{"feature":"PPLA2","type":"V","lat":31.642864,"lon":64.23982,"abbr":"HOKUMATINADEALI","name":"Hokumati Nad-e `Ali"},
{"feature":"PPLA2","type":"V","lat":31.642864,"lon":64.23982,"abbr":"NADALI","name":"Nad `Ali"},
{"feature":"PPLA2","type":"VS","lat":31.642864,"lon":64.23982,"abbr":"حکومتینادعلی","name":"حکومتی ناد علی"},
{"feature":"PPLA2","type":"V","lat":31.642864,"lon":64.23982,"abbr":"HOKUMATENADEALI","name":"Hokumat-e Nad-e `Ali"},
{"feature":"PPLA2","type":"V","lat":31.642864,"lon":64.23982,"abbr":"KHUKUMATINADIALI","name":"Khukumati-Nadi-Ali"},
{"feature":"PPLA2","type":"V","lat":31.642864,"lon":64.23982,"abbr":"NADEALI","name":"Nad-e `Ali"},
{"feature":"PPLA2","type":"V","lat":31.642864,"lon":64.23982,"abbr":"NADIALI","name":"Nad-i-Ali"},
{"feature":"PPLA2","type":"V","lat":31.642864,"lon":64.23982,"abbr":"NADALI","name":"Nad`ali"},
{"feature":"PPLA2","type":"V","lat":31.642864,"lon":64.23982,"abbr":"HOKUMATINADEALI","name":"Hokumati Nad-e `Ali"},
{"feature":"PPLA2","type":"V","lat":31.642864,"lon":64.23982,"abbr":"NADEALI","name":"Nade Ali"},
{"feature":"PPLA2","type":"N","lat":31.642864,"lon":64.23982,"abbr":"HUKUMATENADALI","name":"Hukumat-e Nad `Ali"},
{"feature":"PPLA2","type":"NS","lat":31.642864,"lon":64.23982,"abbr":"حكومتنادعلی","name":"حكومت ناد علی"},
{"feature":"PPLA2","type":"V","lat":31.642864,"lon":64.23982,"abbr":"HOKUMATENADALI","name":"Hokumat-e Nad `Ali"},
{"feature":"PPLA2","type":"VS","lat":31.642864,"lon":64.23982,"abbr":"نادعلی","name":"ناد علی"},
{"feature":"PPLA2","type":"N","lat":34.928907,"lon":68.462727,"abbr":"DAHANEJARF","name":"Dahan-e Jarf"},
{"feature":"PPLA2","type":"V","lat":34.928907,"lon":68.462727,"abbr":"DAKHANIDZHARF","name":"Dakhani-Dzharf"},
{"feature":"PPLA2","type":"NS","lat":34.928907,"lon":68.462727,"abbr":"دهنجرف","name":"دهن جرف"},
{"feature":"PPLA2","type":"NS","lat":32.015826,"lon":65.107207,"abbr":"چنار","name":"چنار"},
{"feature":"PPLA2","type":"N","lat":32.015826,"lon":65.107207,"abbr":"CHINAR","name":"Chinar"},
{"feature":"PPLA2","type":"V","lat":33.302944,"lon":62.1474,"abbr":"ASFAZAR","name":"Asfazar"},
{"feature":"PPLA2","type":"V","lat":33.302944,"lon":62.1474,"abbr":"SHINDAND","name":"Shindand"},
{"feature":"PPLA2","type":"VS","lat":33.302944,"lon":62.1474,"abbr":"شيندند","name":"شيندند"},
{"feature":"PPLA2","type":"VS","lat":31.557203,"lon":65.434295,"abbr":"پشمول","name":"پشمول"},
{"feature":"PPLA2","type":"V","lat":31.557203,"lon":65.434295,"abbr":"PASMUL","name":"Pasmul"},
{"feature":"PPLA2","type":"V","lat":31.557203,"lon":65.434295,"abbr":"PASHMOL","name":"Pashmol"},
{"feature":"PPLA2","type":"NS","lat":31.557203,"lon":65.434295,"abbr":"پاشمول","name":"پاشمول"},
{"feature":"PPLA2","type":"N","lat":31.557203,"lon":65.434295,"abbr":"PASHMUL","name":"Pashmul"},
{"feature":"PPLA2","type":"V","lat":32.015826,"lon":65.107207,"abbr":"CHENAR","name":"Chenar"},
{"feature":"PPLA2","type":"V","lat":32.015826,"lon":65.107207,"abbr":"CENAR","name":"Cenar"},
{"feature":"PPLA2","type":"V","lat":32.015826,"lon":65.107207,"abbr":"CHINAR","name":"Chinar"},
{"feature":"PPLA2","type":"V","lat":32.015826,"lon":65.107207,"abbr":"CHINAR","name":"Chinar"},
{"feature":"PPLA2","type":"VS","lat":32.015826,"lon":65.107207,"abbr":"چینار","name":"چینار"},
{"feature":"PPLA2","type":"V","lat":31.661439,"lon":65.660984,"abbr":"BABASAHEB","name":"Baba Saheb"},
{"feature":"PPLA2","type":"V","lat":31.661439,"lon":65.660984,"abbr":"BABASAKHIB","name":"Babasakhib"},
{"feature":"PPLA2","type":"NS","lat":31.661439,"lon":65.660984,"abbr":"باباصاحب","name":"بابا صاحب"},
{"feature":"PPLA2","type":"N","lat":31.661439,"lon":65.660984,"abbr":"BABASAHIB","name":"Baba Sahib"},
{"feature":"PPLA2","type":"N","lat":33.302944,"lon":62.1474,"abbr":"SHINDAND","name":"Shindand"},
{"feature":"PPLA2","type":"NS","lat":33.302944,"lon":62.1474,"abbr":"شینډنډ","name":"شینډنډ"},
{"feature":"PPLA2","type":"VS","lat":33.302944,"lon":62.1474,"abbr":"شیندند","name":"شیندند"},
{"feature":"PPLA2","type":"V","lat":33.302944,"lon":62.1474,"abbr":"SINDAND","name":"Sindand"},
{"feature":"PPLA2","type":"V","lat":33.302944,"lon":62.1474,"abbr":"SHINDAND","name":"Shindand"},
{"feature":"PPLA2","type":"V","lat":33.302944,"lon":62.1474,"abbr":"SABZEVAR","name":"Sabzevar"},
{"feature":"PPLA2","type":"V","lat":33.302944,"lon":62.1474,"abbr":"SABZAWAR","name":"Sabzawar"},
{"feature":"PPLA2","type":"V","lat":33.302944,"lon":62.1474,"abbr":"SABZAVAR","name":"Sabzavar"},
{"feature":"PPLA2","type":"V","lat":31.00575,"lon":66.400013,"abbr":"SPINBALDAK","name":"Spin Baldak"},
{"feature":"PPLA2","type":"V","lat":31.00575,"lon":66.400013,"abbr":"SPINBULDAK","name":"Spin Buldak"},
{"feature":"PPLA2","type":"NS","lat":31.00575,"lon":66.400013,"abbr":"سپینبولدک","name":"سپین بولدک"},
{"feature":"PPLA2","type":"N","lat":31.00575,"lon":66.400013,"abbr":"SPINBOLDAK","name":"Spin Boldak"},
{"feature":"PPLA2","type":"V","lat":36.881678,"lon":70.276738,"abbr":"BAZARITESKAN","name":"Bazar-i-Teskan"},
{"feature":"PPLA2","type":"V","lat":36.881678,"lon":70.276738,"abbr":"BAZARETASHGAN","name":"Bazar-e Tashgan"},
{"feature":"PPLA2","type":"V","lat":36.881678,"lon":70.276738,"abbr":"BAZARETAGAN","name":"Bazar-e Tagan"},
{"feature":"PPLA2","type":"VS","lat":36.881678,"lon":70.276738,"abbr":"تشکان","name":"تشکان"},
{"feature":"PPLA2","type":"N","lat":36.881678,"lon":70.276738,"abbr":"BAZARETASHKAN","name":"Bazar-e Tashkan"},
{"feature":"PPLA2","type":"NS","lat":36.881678,"lon":70.276738,"abbr":"بازارتشکان","name":"بازار تشکان"},
{"feature":"PPLA2","type":"V","lat":36.881678,"lon":70.276738,"abbr":"TESHKAN","name":"Teshkan"},
{"feature":"PPLA2","type":"V","lat":36.881678,"lon":70.276738,"abbr":"TASKAN","name":"Taskan"},
{"feature":"PPLA2","type":"V","lat":36.881678,"lon":70.276738,"abbr":"TASHKAN","name":"Tashkan"},
{"feature":"PPLA2","type":"V","lat":31.984801,"lon":65.473604,"abbr":"SHABMAQSUD","name":"Shab Maqsud"},
{"feature":"PPLA2","type":"V","lat":31.984801,"lon":65.473604,"abbr":"ZIARATSHAHMAQSUD","name":"Ziarat Shah Maqsud"},
{"feature":"PPLA2","type":"V","lat":31.984801,"lon":65.473604,"abbr":"SHAHMAQSUD","name":"Shah Maqsud"},
{"feature":"PPLA2","type":"V","lat":31.984801,"lon":65.473604,"abbr":"SHAKHAGA","name":"Shakhaga"},
{"feature":"PPLA2","type":"V","lat":31.984801,"lon":65.473604,"abbr":"ZIARATSHAKHMAKSUD","name":"Ziarat-Shakh-Maksud"},
{"feature":"PPLA2","type":"VS","lat":31.984801,"lon":65.473604,"abbr":"زيارتشاهمقصود","name":"زيارت شاه مقصود"},
{"feature":"PPLA2","type":"V","lat":31.984801,"lon":65.473604,"abbr":"SHAHMAKSUD","name":"Shah Maksud"},
{"feature":"PPLA2","type":"V","lat":31.984801,"lon":65.473604,"abbr":"SAHAGHA","name":"Sah Agha"},
{"feature":"PPLA2","type":"VS","lat":31.984801,"lon":65.473604,"abbr":"شاهآغا","name":"شاه آغا"},
{"feature":"PPLA2","type":"V","lat":31.984801,"lon":65.473604,"abbr":"ZYARATESAHMAQSUD","name":"Zyarate Sah Maqsud"},
{"feature":"PPLA2","type":"NS","lat":31.984801,"lon":65.473604,"abbr":"زیارتشاهمقصود","name":"زیارت شاه مقصود"},
{"feature":"PPLA2","type":"V","lat":31.984801,"lon":65.473604,"abbr":"SHAHAGHA","name":"Shah Agha"},
{"feature":"PPLA2","type":"N","lat":31.984801,"lon":65.473604,"abbr":"ZIARATESHAHMAQSUD","name":"Ziarat-e Shah Maqsud"},
{"feature":"PPLA2","type":"V","lat":37.889653,"lon":70.218753,"abbr":"DEHKHAHAN","name":"Deh Khahan"},
{"feature":"PPLA2","type":"VS","lat":37.889653,"lon":70.218753,"abbr":"دهخاهان","name":"ده خاهان"},
{"feature":"PPLA2","type":"V","lat":30.211442,"lon":66.047647,"abbr":"AMANZAI","name":"Amanzai"},
{"feature":"PPLA2","type":"V","lat":30.211442,"lon":66.047647,"abbr":"AMANZEY","name":"Amanzey"},
{"feature":"PPLA2","type":"V","lat":30.211442,"lon":66.047647,"abbr":"AMANZI","name":"Amanzi"},
{"feature":"PPLA2","type":"N","lat":30.211442,"lon":66.047647,"abbr":"AMANZI","name":"Amanzi"},
{"feature":"PPLA2","type":"NS","lat":30.211442,"lon":66.047647,"abbr":"امانزی","name":"امانزی"},
{"feature":"PPLA2","type":"V","lat":30.211442,"lon":66.047647,"abbr":"AMINZAI","name":"Amin Za'i"},
{"feature":"PPLA2","type":"VS","lat":30.211442,"lon":66.047647,"abbr":"امنزئی","name":"امن زئی"},
{"feature":"PPLA2","type":"V","lat":37.889653,"lon":70.218753,"abbr":"DEHKHAHAN","name":"Deh Khahan"},
{"feature":"PPLA2","type":"V","lat":37.889653,"lon":70.218753,"abbr":"KHVAHAN","name":"Khvahan"},
{"feature":"PPLA2","type":"V","lat":37.889653,"lon":70.218753,"abbr":"KHWAHAN","name":"Khwahan"},
{"feature":"PPLA2","type":"VS","lat":37.889653,"lon":70.218753,"abbr":"خواهان","name":"خواهان"},
{"feature":"PPLA2","type":"V","lat":37.889653,"lon":70.218753,"abbr":"QALAKHWAHAN","name":"Qala Khwahan"},
{"feature":"PPLA2","type":"N","lat":37.889653,"lon":70.218753,"abbr":"DEHKHWAHAN","name":"Deh Khwahan"},
{"feature":"PPLA2","type":"NS","lat":37.889653,"lon":70.218753,"abbr":"دهخواهان","name":"ده خواهان"},
{"feature":"PPLA2","type":"V","lat":33.198014,"lon":68.107977,"abbr":"KARABAG","name":"Karabag"},
{"feature":"PPLA2","type":"V","lat":33.198014,"lon":68.107977,"abbr":"QARABAGH","name":"Qarabagh"},
{"feature":"PPLA2","type":"NS","lat":33.198014,"lon":68.107977,"abbr":"قرهباغ","name":"قره باغ"},
{"feature":"PPLA2","type":"N","lat":33.198014,"lon":68.107977,"abbr":"QARAHBAGH","name":"Qarah Bagh"},
{"feature":"PPLA2","type":"V","lat":33.198014,"lon":68.107977,"abbr":"QAREHBAGH","name":"Qarehbagh"},
{"feature":"PPLA2","type":"V","lat":36.678179,"lon":66.803254,"abbr":"CHEMTAL","name":"Chemtal"},
{"feature":"PPLA2","type":"V","lat":36.678179,"lon":66.803254,"abbr":"AHANQALEH","name":"Ahan Qal`eh"},
{"feature":"PPLA2","type":"VS","lat":36.678179,"lon":66.803254,"abbr":"ЧИМТАЛЬ","name":"Чимталь"},
{"feature":"PPLA2","type":"N","lat":36.678179,"lon":66.803254,"abbr":"CHIMTAL","name":"Chimtal"},
{"feature":"PPLA2","type":"V","lat":36.678179,"lon":66.803254,"abbr":"CHIMTAL","name":"Chimtal"},
{"feature":"PPLA2","type":"NS","lat":36.678179,"lon":66.803254,"abbr":"چمتال","name":"چمتال"},
{"feature":"PPLA2","type":"V","lat":36.678179,"lon":66.803254,"abbr":"CEMTAL","name":"Cemtal"},
{"feature":"PPLA2","type":"VS","lat":36.678179,"lon":66.803254,"abbr":"چمتل","name":"چمتل"},
{"feature":"PPLA2","type":"VS","lat":36.697362,"lon":67.698255,"abbr":"ТАШКУРГАН","name":"Ташкурган"},
{"feature":"PPLA2","type":"V","lat":36.697362,"lon":67.698255,"abbr":"TASHKURGAN","name":"Tashkurgan"},
{"feature":"PPLA2","type":"V","lat":36.697362,"lon":67.698255,"abbr":"TASHQORGHAN","name":"Tashqorghan"},
{"feature":"PPLA2","type":"V","lat":36.697362,"lon":67.698255,"abbr":"BAZAREKHULM","name":"Bazar-e Khulm"},
{"feature":"PPLA2","type":"VS","lat":36.697362,"lon":67.698255,"abbr":"بازارخلم","name":"بازار خلم"},
{"feature":"PPLA2","type":"NS","lat":36.697362,"lon":67.698255,"abbr":"خلم","name":"خلم"},
{"feature":"PPLA2","type":"N","lat":36.697362,"lon":67.698255,"abbr":"KHULM","name":"Khulm"},
{"feature":"PPLA2","type":"V","lat":36.697362,"lon":67.698255,"abbr":"TASHQURGHAN","name":"Tashqurghan"},
{"feature":"PPLA2","type":"VS","lat":36.697362,"lon":67.698255,"abbr":"تاشقرغان","name":"تاشقرغان"},
{"feature":"PPLA2","type":"V","lat":36.697362,"lon":67.698255,"abbr":"TASHKURGHAN","name":"Tashkurghan"},
{"feature":"PPLA2","type":"V","lat":36.697362,"lon":67.698255,"abbr":"KHOLM","name":"Kholm"},
{"feature":"PPLA2","type":"NS","lat":36.083517,"lon":66.840293,"abbr":"آقکپرک","name":"آق کپرک"},
{"feature":"PPLA2","type":"V","lat":36.083517,"lon":66.840293,"abbr":"KESHINDEH","name":"Keshindeh"},
{"feature":"PPLA2","type":"V","lat":36.083517,"lon":66.840293,"abbr":"KESHENDE","name":"Keshende"},
{"feature":"PPLA2","type":"V","lat":36.083517,"lon":66.840293,"abbr":"AKKUPRAK","name":"Ak Kuprak"},
{"feature":"PPLA2","type":"V","lat":36.083517,"lon":66.840293,"abbr":"AKKUPRUK","name":"Ak Kupruk"},
{"feature":"PPLA2","type":"V","lat":36.083517,"lon":66.840293,"abbr":"KESHENDAH","name":"Keshendah"},
{"feature":"PPLA2","type":"V","lat":36.083517,"lon":66.840293,"abbr":"KESHENDEH","name":"Keshendeh"},
{"feature":"PPLA2","type":"V","lat":36.083517,"lon":66.840293,"abbr":"AQKUBRUK","name":"Aq Kubruk"},
{"feature":"PPLA2","type":"VS","lat":36.083517,"lon":66.840293,"abbr":"آقکبرک","name":"آق کبرک"},
{"feature":"PPLA2","type":"N","lat":36.083517,"lon":66.840293,"abbr":"AQKUPRUK","name":"Aq Kupruk"},
{"feature":"PPLA2","type":"V","lat":32.941111,"lon":69.18,"abbr":"ORGUN","name":"Orgun"},
{"feature":"PPLA2","type":"V","lat":32.941111,"lon":69.18,"abbr":"URGUN","name":"Urgun"},
{"feature":"PPLA2","type":"V","lat":32.941111,"lon":69.18,"abbr":"ORGUN","name":"Orgun"},
{"feature":"PPLA2","type":"N","lat":32.941111,"lon":69.18,"abbr":"URGUN","name":"Urgun"},
{"feature":"PPLA2","type":"NS","lat":32.941111,"lon":69.18,"abbr":"ارگون","name":"ارگون"},
{"feature":"PPLA2","type":"V","lat":34.799514,"lon":62.139172,"abbr":"RABATESANGI","name":"Rabat-e Sangi"},
{"feature":"PPLA2","type":"VS","lat":34.799514,"lon":62.139172,"abbr":"رباطسنگی","name":"رباط سنگی"},
{"feature":"PPLA2","type":"N","lat":34.799514,"lon":62.139172,"abbr":"RABATESANGIYEPAIN","name":"Rabat-e Sangi-ye Pa'in"},
{"feature":"PPLA2","type":"V","lat":34.799514,"lon":62.139172,"abbr":"ROBATESANGIYEPAIN","name":"Robat-e Sangi-ye Pa'in"},
{"feature":"PPLA2","type":"V","lat":34.799514,"lon":62.139172,"abbr":"RABATISANGIYIPAIN","name":"Rabati-Sangiyi-Pain"},
{"feature":"PPLA2","type":"V","lat":34.799514,"lon":62.139172,"abbr":"RABATISANGIPAIN","name":"Rabat-i-Sangi-Pa'in"},
{"feature":"PPLA2","type":"NS","lat":34.799514,"lon":62.139172,"abbr":"رباطسنگیپائین","name":"رباط سنگی پائین"},
{"feature":"PPLA2","type":"V","lat":33.785293,"lon":63.247354,"abbr":"QALAIFARSI","name":"Qal`a-i-Farsi"},
{"feature":"PPLA2","type":"V","lat":33.785293,"lon":63.247354,"abbr":"QALAHYEFARSI","name":"Qal`ah-ye Farsi"},
{"feature":"PPLA2","type":"VS","lat":33.785293,"lon":63.247354,"abbr":"قلعۀفرسی","name":"قلعۀ فرسی"},
{"feature":"PPLA2","type":"N","lat":33.785293,"lon":63.247354,"abbr":"QALAHYEFARSI","name":"Qal`ah-ye Farsi"},
{"feature":"PPLA2","type":"V","lat":33.785293,"lon":63.247354,"abbr":"FARSI","name":"Farsi"},
{"feature":"PPLA2","type":"V","lat":33.785293,"lon":63.247354,"abbr":"QALEHYEFARSI","name":"Qal`eh-ye Farsi"},
{"feature":"PPLA2","type":"V","lat":33.785293,"lon":63.247354,"abbr":"QALAFARSI","name":"Qal`a Farsi"},
{"feature":"PPLA2","type":"V","lat":33.785293,"lon":63.247354,"abbr":"FARSI","name":"Farsi"},
{"feature":"PPLA2","type":"V","lat":33.785293,"lon":63.247354,"abbr":"KALAFARSI","name":"Kalafarsi"},
{"feature":"PPLA2","type":"V","lat":33.785293,"lon":63.247354,"abbr":"QALEHFARSI","name":"Qal`eh Farsi"},
{"feature":"PPLA2","type":"NS","lat":33.785293,"lon":63.247354,"abbr":"قلعۀفارسی","name":"قلعۀ فارسی"},
{"feature":"PPLA2","type":"N","lat":32.726923,"lon":67.636964,"abbr":"ALAQAHDARIGELAN","name":"`Alaqahdari Gelan"},
{"feature":"PPLA2","type":"V","lat":32.726923,"lon":67.636964,"abbr":"ALAQAHDARIJANDAH","name":"`Alaqahdari Jandah"},
{"feature":"PPLA2","type":"VS","lat":32.726923,"lon":67.636964,"abbr":"گېلان","name":"گېلان"},
{"feature":"PPLA2","type":"V","lat":32.726923,"lon":67.636964,"abbr":"GELAN","name":"Gelan"},
{"feature":"PPLA2","type":"NS","lat":32.726923,"lon":67.636964,"abbr":"علاقهداریگېلان","name":"علاقه داری گېلان"},
{"feature":"PPLA2","type":"VS","lat":32.726923,"lon":67.636964,"abbr":"علاقهداریجڼډه","name":"علاقه داری جڼډه"},
{"feature":"PPLA2","type":"V","lat":32.726923,"lon":67.636964,"abbr":"JANDA","name":"Janda"},
{"feature":"PPLA2","type":"V","lat":32.726923,"lon":67.636964,"abbr":"ALAQADARIGELAN","name":"`Alaqadari Gelan"},
{"feature":"PPLA2","type":"V","lat":32.726923,"lon":67.636964,"abbr":"ALAKADARIGELAN","name":"Alakadari-Gelan"},
{"feature":"PPLA2","type":"V","lat":32.726923,"lon":67.636964,"abbr":"GILAN","name":"Gilan"},
{"feature":"PPLA2","type":"VS","lat":32.241391,"lon":62.949361,"abbr":"سلطانبکواه","name":"سلطان بکواه"},
{"feature":"PPLA2","type":"V","lat":32.241391,"lon":62.949361,"abbr":"MARKAZEHUKUMATESULTANEBAKWA","name":"Markaz-e Hukumat-e Sultan-e Bakwa"},
{"feature":"PPLA2","type":"VS","lat":32.241391,"lon":62.949361,"abbr":"مرکزحکومتسلطانبکوا","name":"مرکز حکومت سلطان بکوا"},
{"feature":"PPLA2","type":"V","lat":32.241391,"lon":62.949361,"abbr":"SULTANEBAKWAH","name":"Sultan-e Bakwah"},
{"feature":"PPLA2","type":"V","lat":32.241391,"lon":62.949361,"abbr":"MARKAZEHOKUMATESOLTANEBAKVA","name":"Markaz-e Hokumat-e Soltan-e Bakva"},
{"feature":"PPLA2","type":"V","lat":32.241391,"lon":62.949361,"abbr":"MARKAZIKHUKUMATISULTANIBAKVA","name":"Markazi-Khukumati-Sultani-Bakva"},
{"feature":"PPLA2","type":"V","lat":32.241391,"lon":62.949361,"abbr":"SOLTANEBAKVA","name":"Soltan-e Bakva"},
{"feature":"PPLA2","type":"V","lat":32.241391,"lon":62.949361,"abbr":"SULTANEBAKWA","name":"Sultane Bakwa"},
{"feature":"PPLA2","type":"V","lat":32.241391,"lon":62.949361,"abbr":"SULTANBAKWA","name":"Sultan Bakwa"},
{"feature":"PPLA2","type":"V","lat":32.241391,"lon":62.949361,"abbr":"SULTANBAKHWA","name":"Sultan Bakhwa"},
{"feature":"PPLA2","type":"V","lat":32.241391,"lon":62.949361,"abbr":"BAKWAH","name":"Bakwah"},
{"feature":"PPLA2","type":"V","lat":32.241391,"lon":62.949361,"abbr":"MARKAZEHOKUMATESULTANEBAKWA","name":"Markaze Hokumate Sultane Bakwa"},
{"feature":"PPLA2","type":"V","lat":32.241391,"lon":62.949361,"abbr":"BAKVA","name":"Bakva"},
{"feature":"PPLA2","type":"V","lat":32.241391,"lon":62.949361,"abbr":"SOLTANBAKVAH","name":"Soltan Bakvah"},
{"feature":"PPLA2","type":"N","lat":32.241391,"lon":62.949361,"abbr":"MARKAZEHUKUMATESULTANEBAKWAH","name":"Markaz-e Hukumat-e Sultan-e Bakwah"},
{"feature":"PPLA2","type":"NS","lat":32.241391,"lon":62.949361,"abbr":"مرکزحکومتسلطانبکواه","name":"مرکز حکومت سلطان بکواه"},
{"feature":"PPLA2","type":"V","lat":36.522204,"lon":70.790635,"abbr":"GHARMAI","name":"Gharmai"},
{"feature":"PPLA2","type":"NS","lat":36.522204,"lon":70.790635,"abbr":"غریدغرمې","name":"غرید غرمې"},
{"feature":"PPLA2","type":"V","lat":36.522204,"lon":70.790635,"abbr":"GHOWRAYDGHARAMI","name":"Ghowrayd Gharami"},
{"feature":"PPLA2","type":"V","lat":36.522204,"lon":70.790635,"abbr":"GHORAYDGHARAME","name":"Ghoraydgharame"},
{"feature":"PPLA2","type":"N","lat":36.522204,"lon":70.790635,"abbr":"GHURAYDGHARAME","name":"Ghurayd Gharame"},
{"feature":"PPLA2","type":"V","lat":36.522204,"lon":70.790635,"abbr":"GHURMAY","name":"Ghurmay"},
{"feature":"PPLA2","type":"VS","lat":36.522204,"lon":70.790635,"abbr":"غرمی","name":"غرمی"},
{"feature":"PPLA2","type":"V","lat":36.522204,"lon":70.790635,"abbr":"GARM","name":"Garm"},
{"feature":"PPLA2","type":"V","lat":36.522204,"lon":70.790635,"abbr":"GHARMI","name":"Gharmi"},
{"feature":"PPLA2","type":"V","lat":34.584694,"lon":68.955235,"abbr":"CANDALBAI","name":"Candalba'i"},
{"feature":"PPLA2","type":"V","lat":34.584694,"lon":68.955235,"abbr":"CHANDALBAE","name":"Chandalba'e"},
{"feature":"PPLA2","type":"V","lat":34.584694,"lon":68.955235,"abbr":"CHANDALBAI","name":"Chandalba'i"},
{"feature":"PPLA2","type":"NS","lat":34.584694,"lon":68.955235,"abbr":"چندلبائی","name":"چندل بائی"},
{"feature":"PPLA2","type":"N","lat":34.584694,"lon":68.955235,"abbr":"CHANDALBAI","name":"Chandal Ba'i"},
{"feature":"PPLA2","type":"VS","lat":34.470796,"lon":68.654378,"abbr":"جلريز","name":"جلريز"},
{"feature":"PPLA2","type":"V","lat":34.470796,"lon":68.654378,"abbr":"JALRAYZ","name":"Jalrayz"},
{"feature":"PPLA2","type":"V","lat":34.470796,"lon":68.654378,"abbr":"JALRIZ","name":"Jalriz"},
{"feature":"PPLA2","type":"V","lat":34.470796,"lon":68.654378,"abbr":"JALEZ","name":"Jalez"},
{"feature":"PPLA2","type":"V","lat":34.470796,"lon":68.654378,"abbr":"DZHALEZ","name":"Dzhalez"},
{"feature":"PPLA2","type":"V","lat":34.470796,"lon":68.654378,"abbr":"JALREZ","name":"Jalrez"},
{"feature":"PPLA2","type":"V","lat":34.470796,"lon":68.654378,"abbr":"JALREYZ","name":"Jalreyz"},
{"feature":"PPLA2","type":"V","lat":34.470796,"lon":68.654378,"abbr":"JALIZ","name":"Jaliz"},
{"feature":"PPLA2","type":"N","lat":34.470796,"lon":68.654378,"abbr":"JALREZ","name":"Jalrez"},
{"feature":"PPLA2","type":"NS","lat":34.470796,"lon":68.654378,"abbr":"جلرېز","name":"جلرېز"},
{"feature":"PPLA2","type":"N","lat":34.214216,"lon":69.100265,"abbr":"MUHAMMADAGHAHWULUSWALI","name":"Muhammad Aghah Wuluswali"},
{"feature":"PPLA2","type":"V","lat":34.214216,"lon":69.100265,"abbr":"DEHEMUHAMMADAGHAH","name":"Deh-e Muhammad Aghah"},
{"feature":"PPLA2","type":"V","lat":34.214216,"lon":69.100265,"abbr":"MOHAMMADAGHA","name":"Mohammad Agha"},
{"feature":"PPLA2","type":"NS","lat":34.214216,"lon":69.100265,"abbr":"محمدآغهولسوالی","name":"محمد آغه ولسوالی"},
{"feature":"PPLA2","type":"V","lat":34.214216,"lon":69.100265,"abbr":"MUHAMMADAGHA","name":"Muhammad Agha"},
{"feature":"PPLA2","type":"V","lat":34.214216,"lon":69.100265,"abbr":"MOHAMMADAGHAH","name":"Mohammad Aghah"},
{"feature":"PPLA2","type":"V","lat":34.343602,"lon":67.905671,"abbr":"WULUSWALIBIHSUD","name":"Wuluswali Bihsud"},
{"feature":"PPLA2","type":"V","lat":34.343602,"lon":67.905671,"abbr":"MARKAZEBIHSUD","name":"Markaz-e Bihsud"},
{"feature":"PPLA2","type":"VS","lat":34.343602,"lon":67.905671,"abbr":"مرکزبهسود","name":"مرکز بهسود"},
{"feature":"PPLA2","type":"V","lat":34.343602,"lon":67.905671,"abbr":"BEHSUD","name":"Behsud"},
{"feature":"PPLA2","type":"V","lat":34.343602,"lon":67.905671,"abbr":"OLUSWALIBEHSUD","name":"Oluswali Behsud"},
{"feature":"PPLA2","type":"V","lat":34.343602,"lon":67.905671,"abbr":"ULUSVALIBIKHSUD","name":"Ulusvali-Bikhsud"},
{"feature":"PPLA2","type":"V","lat":34.343602,"lon":67.905671,"abbr":"OLUSVALIBEHSOWD","name":"Olusvali Behsowd"},
{"feature":"PPLA2","type":"NS","lat":34.343602,"lon":67.905671,"abbr":"ولسوالیبهسود","name":"ولسوالی بهسود"},
{"feature":"PPLA2","type":"N","lat":34.343602,"lon":67.905671,"abbr":"WULESWALIBIHSUD","name":"Wuleswali Bihsud"},
{"feature":"PPLA2","type":"N","lat":36.864768,"lon":70.834207,"abbr":"JURM","name":"Jurm"},
{"feature":"PPLA2","type":"V","lat":36.864768,"lon":70.834207,"abbr":"JARM","name":"Jarm"},
{"feature":"PPLA2","type":"V","lat":37.5275,"lon":65.758333,"abbr":"KHAMEAB","name":"Kham-e Ab"},
{"feature":"PPLA2","type":"V","lat":37.5275,"lon":65.758333,"abbr":"KHAMIAB","name":"Kham-i-Ab"},
{"feature":"PPLA2","type":"NS","lat":37.5275,"lon":65.758333,"abbr":"خمياب","name":"خمياب"},
{"feature":"PPLA2","type":"N","lat":37.5275,"lon":65.758333,"abbr":"KHAMYAB","name":"Khamyab"},
{"feature":"PPLA2","type":"VS","lat":37.5275,"lon":65.758333,"abbr":"خامآب","name":"خام آب"},
{"feature":"PPLA2","type":"V","lat":37.5275,"lon":65.758333,"abbr":"KHAMAB","name":"Kham Ab"},
{"feature":"PPLA2","type":"NS","lat":34.653889,"lon":61.197778,"abbr":"کهسان","name":"کهسان"},
{"feature":"PPLA2","type":"V","lat":34.653889,"lon":61.197778,"abbr":"KUHESTAN","name":"Kuhestan"},
{"feature":"PPLA2","type":"VS","lat":34.653889,"lon":61.197778,"abbr":"کوهستان","name":"کوهستان"},
{"feature":"PPLA2","type":"V","lat":34.653889,"lon":61.197778,"abbr":"KUHSAN","name":"Kuhsan"},
{"feature":"PPLA2","type":"V","lat":34.653889,"lon":61.197778,"abbr":"KOHSAN","name":"Kohsan"},
{"feature":"PPLA2","type":"V","lat":34.653889,"lon":61.197778,"abbr":"KOHISTAN","name":"Kohistan"},
{"feature":"PPLA2","type":"N","lat":34.653889,"lon":61.197778,"abbr":"KUHSAN","name":"Kuhsan"},
{"feature":"PPLA2","type":"VS","lat":34.173553,"lon":69.645728,"abbr":"ازره","name":"ازره"},
{"feature":"PPLA2","type":"V","lat":34.173553,"lon":69.645728,"abbr":"AZRAH","name":"Azrah"},
{"feature":"PPLA2","type":"V","lat":34.173553,"lon":69.645728,"abbr":"AZROW","name":"Azrow"},
{"feature":"PPLA2","type":"V","lat":34.173553,"lon":69.645728,"abbr":"HOKUMATIAZROW","name":"Hokumati Azrow"},
{"feature":"PPLA2","type":"V","lat":34.173553,"lon":69.645728,"abbr":"AZRA","name":"Azra"},
{"feature":"PPLA2","type":"V","lat":34.173553,"lon":69.645728,"abbr":"AZREH","name":"Azreh"},
{"feature":"PPLA2","type":"V","lat":34.173553,"lon":69.645728,"abbr":"HAZRO","name":"Hazro"},
{"feature":"PPLA2","type":"V","lat":34.173553,"lon":69.645728,"abbr":"HAZRAH","name":"Hazrah"},
{"feature":"PPLA2","type":"V","lat":34.173553,"lon":69.645728,"abbr":"AZRU","name":"Azru"},
{"feature":"PPLA2","type":"V","lat":34.173553,"lon":69.645728,"abbr":"AZRAW","name":"Azraw"},
{"feature":"PPLA2","type":"V","lat":34.173553,"lon":69.645728,"abbr":"HOKUMATIAZRAW","name":"Hokumati Azraw"},
{"feature":"PPLA2","type":"V","lat":34.173553,"lon":69.645728,"abbr":"KHUKUMATIAZRAU","name":"Khukumati-Azrau"},
{"feature":"PPLA2","type":"VS","lat":34.173553,"lon":69.645728,"abbr":"ازرو","name":"ازرو"},
{"feature":"PPLA2","type":"N","lat":34.173553,"lon":69.645728,"abbr":"HUKUMATIAZRAH","name":"Hukumati Azrah"},
{"feature":"PPLA2","type":"NS","lat":34.173553,"lon":69.645728,"abbr":"حکومتیازره","name":"حکومتی ازره"},
{"feature":"PPLA2","type":"V","lat":35.906168,"lon":68.488694,"abbr":"DAHANA","name":"Dahana"},
{"feature":"PPLA2","type":"V","lat":35.906168,"lon":68.488694,"abbr":"DANANEHYEGHOWRI","name":"Dananeh-ye Ghowri"},
{"feature":"PPLA2","type":"V","lat":35.906168,"lon":68.488694,"abbr":"DAHNA","name":"Dahna"},
{"feature":"PPLA2","type":"V","lat":35.906168,"lon":68.488694,"abbr":"DAHANAIGHORI","name":"Dahana-i-Ghori"},
{"feature":"PPLA2","type":"V","lat":35.906168,"lon":68.488694,"abbr":"DAHANAGHORI","name":"Dahana Ghori"},
{"feature":"PPLA2","type":"V","lat":35.906168,"lon":68.488694,"abbr":"DAHANAEGHORI","name":"Dahanae Ghori"},
{"feature":"PPLA2","type":"V","lat":35.906168,"lon":68.488694,"abbr":"HOKUMATIDAHANAIGHORIDAHANA","name":"Hokumati Dahana-i-Ghori Dahana"},
{"feature":"PPLA2","type":"V","lat":35.906168,"lon":68.488694,"abbr":"DAHANEHYEGHOWRI","name":"Dahaneh-ye Ghowri"},
{"feature":"PPLA2","type":"N","lat":35.906168,"lon":68.488694,"abbr":"HUKUMATIDAHANAHYEGHORI","name":"Hukumati Dahanah-ye Ghori"},
{"feature":"PPLA2","type":"NS","lat":35.906168,"lon":68.488694,"abbr":"حکومتیدهنهغوری","name":"حکومتی دهنه غوری"},
{"feature":"PPLA2","type":"V","lat":36.864768,"lon":70.834207,"abbr":"SHAHREJORM","name":"Shahr-e Jorm"},
{"feature":"PPLA2","type":"NS","lat":36.864768,"lon":70.834207,"abbr":"جرم","name":"جرم"},
{"feature":"PPLA2","type":"V","lat":36.864768,"lon":70.834207,"abbr":"JURN","name":"Jurn"},
{"feature":"PPLA2","type":"V","lat":36.864768,"lon":70.834207,"abbr":"JORM","name":"Jorm"},
{"feature":"PPLA2","type":"V","lat":35.840263,"lon":65.230896,"abbr":"BELCHIRAGH","name":"Belchiragh"},
{"feature":"PPLA2","type":"V","lat":35.840263,"lon":65.230896,"abbr":"BELCHIRAG","name":"Belchirag"},
{"feature":"PPLA2","type":"V","lat":35.840263,"lon":65.230896,"abbr":"BELCERAGH","name":"Belceragh"},
{"feature":"PPLA2","type":"V","lat":35.840263,"lon":65.230896,"abbr":"BELCHERAGH","name":"Belcheragh"},
{"feature":"PPLA2","type":"N","lat":35.840263,"lon":65.230896,"abbr":"BALCHIRAGH","name":"Bal Chiragh"},
{"feature":"PPLA2","type":"NS","lat":35.840263,"lon":65.230896,"abbr":"بلچراغ","name":"بل چراغ"},
{"feature":"PPLA2","type":"V","lat":35.840263,"lon":65.230896,"abbr":"BELCHIRAGH","name":"Belchiragh"},
{"feature":"PPLA2","type":"VS","lat":35.840263,"lon":65.230896,"abbr":"بېلچراغ","name":"بېل چراغ"},
{"feature":"PPLA2","type":"V","lat":37.397734,"lon":69.814644,"abbr":"CHAYAB","name":"Chayab"},
{"feature":"PPLA2","type":"V","lat":37.397734,"lon":69.814644,"abbr":"CAHIAB","name":"Cah-i-Ab"},
{"feature":"PPLA2","type":"NS","lat":37.397734,"lon":69.814644,"abbr":"چاهآب","name":"چاه آب"},
{"feature":"PPLA2","type":"V","lat":37.397734,"lon":69.814644,"abbr":"CAHAB","name":"Cah Ab"},
{"feature":"PPLA2","type":"V","lat":37.397734,"lon":69.814644,"abbr":"CHAHIAB","name":"Chah-i-Ab"},
{"feature":"PPLA2","type":"N","lat":37.397734,"lon":69.814644,"abbr":"CHAHAB","name":"Chah Ab"},
{"feature":"PPLA2","type":"V","lat":37.397734,"lon":69.814644,"abbr":"CHAHEAB","name":"Chah-e Ab"},
{"feature":"PPLA2","type":"NS","lat":30.432057,"lon":63.298024,"abbr":"علاقهداریديشو","name":"علاقهداری ديشو"},
{"feature":"PPLA2","type":"V","lat":30.432057,"lon":63.298024,"abbr":"ALAQADARIDEHESU","name":"`Alaqadari Dehe Su"},
{"feature":"PPLA2","type":"V","lat":30.432057,"lon":63.298024,"abbr":"ALAQAHDARIDEHESHU","name":"`Alaqahdari Deh-e Shu"},
{"feature":"PPLA2","type":"VS","lat":30.432057,"lon":63.298024,"abbr":"علاقهداریدهشو","name":"علاقهداری ده شو"},
{"feature":"PPLA2","type":"N","lat":30.432057,"lon":63.298024,"abbr":"ALAQAHDARIDISHU","name":"`Alaqahdari Dishu"},
{"feature":"PPLA2","type":"V","lat":30.432057,"lon":63.298024,"abbr":"DISHU","name":"Dishu"},
{"feature":"PPLA2","type":"V","lat":30.432057,"lon":63.298024,"abbr":"ALAQEHDARIDEHESHU","name":"`Alaqehdari Deh-e Shu"},
{"feature":"PPLA2","type":"V","lat":32.793308,"lon":69.086601,"abbr":"ALAQADARISAROBI","name":"`Alaqadari Sarobi"},
{"feature":"PPLA2","type":"V","lat":32.793308,"lon":69.086601,"abbr":"ALAQADARIYESARUBI","name":"`Alaqadari-ye Sarubi"},
{"feature":"PPLA2","type":"V","lat":32.793308,"lon":69.086601,"abbr":"ALAQAHDARIYESAROBI","name":"`Alaqahdari-ye Sarobi"},
{"feature":"PPLA2","type":"V","lat":32.793308,"lon":69.086601,"abbr":"ALAKADARISAROBI","name":"Alakadari-Sarobi"},
{"feature":"PPLA2","type":"NS","lat":32.793308,"lon":69.086601,"abbr":"علاقهداریسړوبی","name":"علاقه داری سړوبی"},
{"feature":"PPLA2","type":"V","lat":32.793308,"lon":69.086601,"abbr":"SAROBI","name":"Sarobi"},
{"feature":"PPLA2","type":"N","lat":32.793308,"lon":69.086601,"abbr":"ALAQAHDARISAROBI","name":"`Alaqahdari Sarobi"},
{"feature":"PPLA2","type":"V","lat":35.232514,"lon":69.377187,"abbr":"ANAWA","name":"Anawa"},
{"feature":"PPLA2","type":"V","lat":35.232514,"lon":69.377187,"abbr":"ANAVA","name":"Anava"},
{"feature":"PPLA2","type":"V","lat":35.232514,"lon":69.377187,"abbr":"ANAWAH","name":"Anawah"},
{"feature":"PPLA2","type":"VS","lat":35.232514,"lon":69.377187,"abbr":"آناوه","name":"آناوه"},
{"feature":"PPLA2","type":"N","lat":35.232514,"lon":69.377187,"abbr":"UNABAH","name":"'Unabah"},
{"feature":"PPLA2","type":"NS","lat":35.232514,"lon":69.377187,"abbr":"عنابه","name":"عنابه"},
{"feature":"PPLA2","type":"V","lat":35.840263,"lon":65.230896,"abbr":"BILCHIRAGH","name":"Bilchiragh"},
{"feature":"PPLA2","type":"N","lat":32.372604,"lon":66.177083,"abbr":"ZAMTOKELAY","name":"Zamto Kelay"},
{"feature":"PPLA2","type":"NS","lat":32.372604,"lon":66.177083,"abbr":"زمتوکلی","name":"زمتو کلی"},
{"feature":"PPLA2","type":"VS","lat":32.372604,"lon":66.177083,"abbr":"زمتو","name":"زمتو"},
{"feature":"PPLA2","type":"V","lat":32.372604,"lon":66.177083,"abbr":"ZAMTO","name":"Zamto"},
{"feature":"PPLA2","type":"V","lat":32.372604,"lon":66.177083,"abbr":"ZAMTOKALAY","name":"Zamto Kalay"},
{"feature":"PPLA2","type":"V","lat":32.372604,"lon":66.177083,"abbr":"ZAMTUKALAY","name":"Zamtukalay"},
{"feature":"PPLA2","type":"VS","lat":32.432052,"lon":65.634838,"abbr":"دنارخيلكلی","name":"د نار خيل كلی"},
{"feature":"PPLA2","type":"V","lat":32.432052,"lon":65.634838,"abbr":"DENARKHELKALAY","name":"De Narkhel Kalay"},
{"feature":"PPLA2","type":"N","lat":32.432052,"lon":65.634838,"abbr":"DENARKHELKELAY","name":"De Narkhel Kelay"},
{"feature":"PPLA2","type":"NS","lat":32.432052,"lon":65.634838,"abbr":"دنارخېلکلی","name":"د نارخېل کلی"},
{"feature":"PPLA2","type":"V","lat":32.432052,"lon":65.634838,"abbr":"DENARKHEYLKALAY","name":"De Narkheyl Kalay"},
{"feature":"PPLA2","type":"V","lat":32.432052,"lon":65.634838,"abbr":"NARKHEYLKALAY","name":"Narkheyl'kalay"},
{"feature":"PPLA2","type":"V","lat":32.432052,"lon":65.634838,"abbr":"DINARKHIL","name":"Dinarkhil"},
{"feature":"PPLA2","type":"VS","lat":32.432052,"lon":65.634838,"abbr":"دينارخيل","name":"دينارخيل"},
{"feature":"PPLA2","type":"V","lat":32.820087,"lon":67.769341,"abbr":"MUQUR","name":"Muqur"},
{"feature":"PPLA2","type":"NS","lat":32.820087,"lon":67.769341,"abbr":"مقر","name":"مقر"},
{"feature":"PPLA2","type":"V","lat":32.820087,"lon":67.769341,"abbr":"MUKAR","name":"Mukar"},
{"feature":"PPLA2","type":"V","lat":32.820087,"lon":67.769341,"abbr":"QALAISARKARI","name":"Qala-i-Sarkari"},
{"feature":"PPLA2","type":"V","lat":32.820087,"lon":67.769341,"abbr":"MUKUR","name":"Mukur"},
{"feature":"PPLA2","type":"V","lat":32.820087,"lon":67.769341,"abbr":"MOQUR","name":"Moqur"},
{"feature":"PPLA2","type":"VS","lat":37.215278,"lon":67.639722,"abbr":"قريهقرنتوغی","name":"قريه قرن توغی"},
{"feature":"PPLA2","type":"V","lat":37.215278,"lon":67.639722,"abbr":"QARYAHYEQARANTOGHAI","name":"Qaryah-ye Qaran Toghai"},
{"feature":"PPLA2","type":"N","lat":37.215278,"lon":67.639722,"abbr":"QARANGHUTOGHAI","name":"Qaranghu Toghai"},
{"feature":"PPLA2","type":"NS","lat":37.215278,"lon":67.639722,"abbr":"قرنغوتوغی","name":"قرنغو توغی"},
{"feature":"PPLA2","type":"V","lat":37.215278,"lon":67.639722,"abbr":"QARANGHUTOGHAI","name":"Qaranghu Toghai"},
{"feature":"PPLA2","type":"V","lat":37.215278,"lon":67.639722,"abbr":"KARANKUTUGAY","name":"Karankutugay"},
{"feature":"PPLA2","type":"N","lat":35.633484,"lon":69.260195,"abbr":"BANU","name":"Banu"},
{"feature":"PPLA2","type":"NS","lat":35.633484,"lon":69.260195,"abbr":"بنو","name":"بنو"},
{"feature":"PPLA2","type":"V","lat":35.633484,"lon":69.260195,"abbr":"BANOW","name":"Banow"},
{"feature":"PPLA2","type":"V","lat":35.633484,"lon":69.260195,"abbr":"BANU","name":"Banu"},
{"feature":"PPLA2","type":"V","lat":35.633484,"lon":69.260195,"abbr":"ANDARAB","name":"Andarab"},
{"feature":"PPLA2","type":"V","lat":35.690306,"lon":69.315105,"abbr":"DEHSALEH","name":"Deh Saleh"},
{"feature":"PPLA2","type":"V","lat":35.690306,"lon":69.315105,"abbr":"DEHSALAH","name":"Deh Salah"},
{"feature":"PPLA2","type":"N","lat":35.690306,"lon":69.315105,"abbr":"DEHESALAH","name":"Deh-e Salah"},
{"feature":"PPLA2","type":"NS","lat":35.690306,"lon":69.315105,"abbr":"دهصلاح","name":"ده صلاح"},
{"feature":"PPLA2","type":"V","lat":33.897935,"lon":67.956519,"abbr":"NAVAR","name":"Navar"},
{"feature":"PPLA2","type":"V","lat":33.897935,"lon":67.956519,"abbr":"OWKAK","name":"Owkak"},
{"feature":"PPLA2","type":"V","lat":33.897935,"lon":67.956519,"abbr":"NAWUR","name":"Nawur"},
{"feature":"PPLA2","type":"V","lat":33.897935,"lon":67.956519,"abbr":"NAVOR","name":"Navor"},
{"feature":"PPLA2","type":"V","lat":33.897935,"lon":67.956519,"abbr":"OKAK","name":"Okak"},
{"feature":"PPLA2","type":"VS","lat":33.897935,"lon":67.956519,"abbr":"ОКАК","name":"Окак"},
{"feature":"PPLA2","type":"N","lat":33.897935,"lon":67.956519,"abbr":"OKAK","name":"Okak"},
{"feature":"PPLA2","type":"NS","lat":33.897935,"lon":67.956519,"abbr":"اوکک","name":"اوکک"},
{"feature":"PPLA2","type":"V","lat":32.820087,"lon":67.769341,"abbr":"MOQOR","name":"Moqor"},
{"feature":"PPLA2","type":"N","lat":32.820087,"lon":67.769341,"abbr":"MUQER","name":"Muqer"},
{"feature":"PPLA2","type":"NS","lat":34.220375,"lon":68.312589,"abbr":"ميران","name":"ميران"},
{"feature":"PPLA2","type":"N","lat":34.220375,"lon":68.312589,"abbr":"MIRAN","name":"Miran"},
{"feature":"PPLA2","type":"V","lat":34.220375,"lon":68.312589,"abbr":"MIRAN","name":"Miran"},
{"feature":"PPLA2","type":"NS","lat":33.645728,"lon":62.269587,"abbr":"ادرسکن","name":"ادرسکن"},
{"feature":"PPLA2","type":"V","lat":33.645728,"lon":62.269587,"abbr":"GALAADRASKAN","name":"Gala Adraskan"},
{"feature":"PPLA2","type":"V","lat":33.645728,"lon":62.269587,"abbr":"QALAADRASKAN","name":"Qala Adraskan"},
{"feature":"PPLA2","type":"V","lat":33.645728,"lon":62.269587,"abbr":"KALAADRASKAN","name":"Kala Adraskan"},
{"feature":"PPLA2","type":"V","lat":33.645728,"lon":62.269587,"abbr":"ADRESKAN","name":"Adreskan"},
{"feature":"PPLA2","type":"V","lat":33.645728,"lon":62.269587,"abbr":"QALEHADRASKAND","name":"Qal`eh Adraskand"},
{"feature":"PPLA2","type":"V","lat":33.645728,"lon":62.269587,"abbr":"ADRASKAND","name":"Adraskand"},
{"feature":"PPLA2","type":"V","lat":33.645728,"lon":62.269587,"abbr":"GALA","name":"Gala"},
{"feature":"PPLA2","type":"V","lat":33.645728,"lon":62.269587,"abbr":"ADRISKAN","name":"Adriskan"},
{"feature":"PPLA2","type":"N","lat":33.645728,"lon":62.269587,"abbr":"ADRASKAN","name":"Adraskan"},
{"feature":"PPLA2","type":"V","lat":34.481083,"lon":62.5863,"abbr":"KARRUKH","name":"Karrukh"},
{"feature":"PPLA2","type":"V","lat":34.481083,"lon":62.5863,"abbr":"KAROKH","name":"Karokh"},
{"feature":"PPLA2","type":"NS","lat":34.481083,"lon":62.5863,"abbr":"کرخ","name":"کرخ"},
{"feature":"PPLA2","type":"V","lat":34.481083,"lon":62.5863,"abbr":"KARUKH","name":"Karukh"},
{"feature":"PPLA2","type":"N","lat":34.481083,"lon":62.5863,"abbr":"KARUKH","name":"Karukh"},
{"feature":"PPLA2","type":"N","lat":34.301566,"lon":62.2465,"abbr":"INJIL","name":"Injil"},
{"feature":"PPLA2","type":"NS","lat":34.301566,"lon":62.2465,"abbr":"انجيل","name":"انجيل"},
{"feature":"PPLA2","type":"V","lat":34.301566,"lon":62.2465,"abbr":"ENJIL","name":"Enjil"},
{"feature":"PPLA2","type":"V","lat":34.301566,"lon":62.2465,"abbr":"ENJEEL","name":"Enjeel"},
{"feature":"PPLA2","type":"N","lat":32.572298,"lon":66.774032,"abbr":"NAYAK","name":"Nayak"},
{"feature":"PPLA2","type":"NS","lat":32.572298,"lon":66.774032,"abbr":"نایک","name":"نایک"},
{"feature":"PPLA2","type":"N","lat":31.803466,"lon":66.323756,"abbr":"SHAHRESAFA","name":"Shahr-e Safa"},
{"feature":"PPLA2","type":"V","lat":31.803466,"lon":66.323756,"abbr":"SAHRESAFA","name":"Sahre Safa"},
{"feature":"PPLA2","type":"NS","lat":31.803466,"lon":66.323756,"abbr":"شهرصفا","name":"شهر صفا"},
{"feature":"PPLA2","type":"V","lat":31.803466,"lon":66.323756,"abbr":"SHAKHRISAFA","name":"Shakhri-Safa"},
{"feature":"PPLA2","type":"V","lat":31.803466,"lon":66.323756,"abbr":"SCHACHRISSAFA","name":"Schachri Ssafa"},
{"feature":"PPLA2","type":"V","lat":31.803466,"lon":66.323756,"abbr":"SHAHRISAFA","name":"Shahr-i-Safa"},
{"feature":"PPLA2","type":"NS","lat":32.176351,"lon":66.512706,"abbr":"ميزانعلاقهداری","name":"ميزان علاقه داری"},
{"feature":"PPLA2","type":"V","lat":32.176351,"lon":66.512706,"abbr":"MIZANALAQAHDARI","name":"Mizan `Alaqahdari"},
{"feature":"PPLA2","type":"N","lat":32.176351,"lon":66.512706,"abbr":"MIZANALAQAHDARI","name":"Mizan `Alaqahdari"},
{"feature":"PPLA2","type":"VS","lat":32.176351,"lon":66.512706,"abbr":"ميزان","name":"ميزان"},
{"feature":"PPLA2","type":"V","lat":32.176351,"lon":66.512706,"abbr":"MIZAN","name":"Mizan"},
{"feature":"PPLA2","type":"V","lat":32.176351,"lon":66.512706,"abbr":"MIZANALAQADARI","name":"Mizan `Alaqadari"},
{"feature":"PPLA2","type":"V","lat":32.176351,"lon":66.512706,"abbr":"MIZANI","name":"Mizani"},
{"feature":"PPLA2","type":"V","lat":32.176351,"lon":66.512706,"abbr":"ALAQADARI","name":"`Alaqadari"},
{"feature":"PPLA2","type":"V","lat":32.176351,"lon":66.512706,"abbr":"MIZANALAKADARI","name":"Mizan-Alakadari"},
{"feature":"PPLA2","type":"N","lat":32.838503,"lon":67.073771,"abbr":"KHAKIRAN","name":"Khakiran"},
{"feature":"PPLA2","type":"V","lat":32.838503,"lon":67.073771,"abbr":"KHAKERAN","name":"Khakeran"},
{"feature":"PPLA2","type":"NS","lat":32.838503,"lon":67.073771,"abbr":"خاکران","name":"خاکران"},
{"feature":"PPLA2","type":"V","lat":32.838503,"lon":67.073771,"abbr":"KHAKIRAN","name":"Khakiran"},
{"feature":"PPLA2","type":"V","lat":33.158056,"lon":69.312778,"abbr":"ZEROKALAGADARI","name":"Zerok Alagadari"},
{"feature":"PPLA2","type":"V","lat":33.158056,"lon":69.312778,"abbr":"ZERUKALAQAHDARI","name":"Zeruk `Alaqahdari"},
{"feature":"PPLA2","type":"V","lat":33.158056,"lon":69.312778,"abbr":"ZIRUKALAQEHDARI","name":"Ziruk `Alaqehdari"},
{"feature":"PPLA2","type":"V","lat":33.158056,"lon":69.312778,"abbr":"ZIRUK","name":"Ziruk"},
{"feature":"PPLA2","type":"VS","lat":33.158056,"lon":69.312778,"abbr":"زیړوک","name":"زیړوک"},
{"feature":"PPLA2","type":"N","lat":33.158056,"lon":69.312778,"abbr":"ZIRUKALAQAHDARI","name":"Ziruk `Alaqahdari"},
{"feature":"PPLA2","type":"NS","lat":33.158056,"lon":69.312778,"abbr":"زیړوکعلاقهداری","name":"زیړوک علاقه داری"},
{"feature":"PPLA2","type":"V","lat":33.158056,"lon":69.312778,"abbr":"ZEROKALAQAHDARI","name":"Zerok `Alaqahdari"},
{"feature":"PPLA2","type":"V","lat":33.158056,"lon":69.312778,"abbr":"ZEROKALAQADARI","name":"Zerok Alaqadari"},
{"feature":"PPLA2","type":"V","lat":33.158056,"lon":69.312778,"abbr":"ZEROKALAKADARI","name":"Zerok-Alakadari"},
{"feature":"PPLA2","type":"N","lat":32.900288,"lon":68.796265,"abbr":"OMNAH","name":"Omnah"},
{"feature":"PPLA2","type":"V","lat":32.900288,"lon":68.796265,"abbr":"OMNA","name":"Omna"},
{"feature":"PPLA2","type":"V","lat":32.900288,"lon":68.796265,"abbr":"OMNA","name":"Omna"},
{"feature":"PPLA2","type":"V","lat":32.900288,"lon":68.796265,"abbr":"OWMNEH","name":"Owmneh"},
{"feature":"PPLA2","type":"NS","lat":32.900288,"lon":68.796265,"abbr":"اومنه","name":"اومنه"},
{"feature":"PPLA2","type":"VS","lat":32.565214,"lon":67.033239,"abbr":"ساگز","name":"ساگز"},
{"feature":"PPLA2","type":"N","lat":32.565214,"lon":67.033239,"abbr":"SAYAGAZ","name":"Sayagaz"},
{"feature":"PPLA2","type":"NS","lat":32.565214,"lon":67.033239,"abbr":"سایگز","name":"سایگز"},
{"feature":"PPLA2","type":"V","lat":32.685667,"lon":68.238013,"abbr":"KHOSAMAND","name":"Khosamand"},
{"feature":"PPLA2","type":"V","lat":32.685667,"lon":68.238013,"abbr":"KHUSHAMAD","name":"Khush Amad"},
{"feature":"PPLA2","type":"VS","lat":32.685667,"lon":68.238013,"abbr":"خوشآمد","name":"خوش آمد"},
{"feature":"PPLA2","type":"N","lat":32.685667,"lon":68.238013,"abbr":"KHOSHAMAND","name":"Khoshamand"},
{"feature":"PPLA2","type":"NS","lat":32.685667,"lon":68.238013,"abbr":"خوشامند","name":"خوشامند"},
{"feature":"PPLA2","type":"V","lat":32.685667,"lon":68.238013,"abbr":"KHVOSHAMAND","name":"Khvoshamand"},
{"feature":"PPLA2","type":"V","lat":32.685667,"lon":68.238013,"abbr":"KHVOSHMAND","name":"Khvosh Mand"},
{"feature":"PPLA2","type":"V","lat":32.685667,"lon":68.238013,"abbr":"KHUSHAMAND","name":"Khushamand"},
{"feature":"PPLA2","type":"V","lat":32.685667,"lon":68.238013,"abbr":"KHUSAMAND","name":"Khusamand"},
{"feature":"PPLA2","type":"V","lat":32.685667,"lon":68.238013,"abbr":"KHUSAMAD","name":"Khus Amad"},
{"feature":"PPLA2","type":"V","lat":32.685667,"lon":68.238013,"abbr":"KHVOSHAMAD","name":"Khvosh Amad"},
{"feature":"PPLA2","type":"N","lat":32.937423,"lon":68.64622,"abbr":"YAHYAKHEL","name":"Yahya Khel"},
{"feature":"PPLA2","type":"NS","lat":32.937423,"lon":68.64622,"abbr":"یحیىخېل","name":"یحیى خېل"},
{"feature":"PPLA2","type":"V","lat":32.937423,"lon":68.64622,"abbr":"YAHYAKHEYL","name":"Yahya Kheyl"},
{"feature":"PPLA2","type":"V","lat":32.937423,"lon":68.64622,"abbr":"YAKHEL","name":"Ya Khel"},
{"feature":"PPLA2","type":"V","lat":32.937423,"lon":68.64622,"abbr":"YAKHYAKHEYL","name":"Yakh'yakheyl'"},
{"feature":"PPLA2","type":"V","lat":32.937423,"lon":68.64622,"abbr":"YAHYAKHEL","name":"Yahyakhel"},
{"feature":"PPLA2","type":"V","lat":32.937423,"lon":68.64622,"abbr":"YEHYAKHEL","name":"Yehyakhel"},
{"feature":"PPLA2","type":"VS","lat":32.521541,"lon":67.413151,"abbr":"شاهجوی","name":"شاه جوی"},
{"feature":"PPLA2","type":"V","lat":32.521541,"lon":67.413151,"abbr":"SHAHJOY","name":"Shah Joy"},
{"feature":"PPLA2","type":"N","lat":32.521541,"lon":67.413151,"abbr":"ALAQAHDARISHAHJOY","name":"`Alaqahdari Shah Joy"},
{"feature":"PPLA2","type":"V","lat":32.521541,"lon":67.413151,"abbr":"ALAKADARISHAKHDZHOY","name":"Alakadari-Shakhdzhoy"},
{"feature":"PPLA2","type":"V","lat":32.521541,"lon":67.413151,"abbr":"SHAHJUY","name":"Shah Juy"},
{"feature":"PPLA2","type":"V","lat":32.521541,"lon":67.413151,"abbr":"SHAJUY","name":"Shajuy"},
{"feature":"PPLA2","type":"V","lat":32.521541,"lon":67.413151,"abbr":"SHAJOI","name":"Sha Joi"},
{"feature":"PPLA2","type":"V","lat":32.521541,"lon":67.413151,"abbr":"SHAHJOY","name":"Shah Joy"},
{"feature":"PPLA2","type":"V","lat":32.521541,"lon":67.413151,"abbr":"SAHJOY","name":"Sahjoy"},
{"feature":"PPLA2","type":"V","lat":32.521541,"lon":67.413151,"abbr":"ALAQADARISAHJOY","name":"Alaqadari Sahjoy"},
{"feature":"PPLA2","type":"V","lat":32.521541,"lon":67.413151,"abbr":"SHAHJUI","name":"Shahjui"},
{"feature":"PPLA2","type":"NS","lat":32.521541,"lon":67.413151,"abbr":"علاقهداریشاهجوی","name":"علاقه داری شاه جوی"},
{"feature":"PPLA2","type":"V","lat":32.565214,"lon":67.033239,"abbr":"SAGAZ","name":"Sagaz"},
{"feature":"PPLA2","type":"V","lat":38.40856,"lon":71.038385,"abbr":"MAHMAI","name":"Mahmai"},
{"feature":"PPLA2","type":"V","lat":38.40856,"lon":71.038385,"abbr":"MAYMEY","name":"Maymey"},
{"feature":"PPLA2","type":"NS","lat":38.40856,"lon":71.038385,"abbr":"مایمی","name":"مایمی"},
{"feature":"PPLA2","type":"N","lat":38.40856,"lon":71.038385,"abbr":"MAYMAY","name":"Maymay"},
{"feature":"PPLA2","type":"V","lat":38.40856,"lon":71.038385,"abbr":"MAHMEY","name":"Mahmey"},
{"feature":"PPLA2","type":"V","lat":38.40856,"lon":71.038385,"abbr":"MAYMAY","name":"Maymay"},
{"feature":"PPLA2","type":"V","lat":38.40856,"lon":71.038385,"abbr":"MAHMAYK","name":"Mah Mayk"},
{"feature":"PPLA2","type":"V","lat":33.942528,"lon":69.719078,"abbr":"ALIKHEYL","name":"`Ali Kheyl"},
{"feature":"PPLA2","type":"V","lat":33.942528,"lon":69.719078,"abbr":"ALIKHEL","name":"`Alikhel"},
{"feature":"PPLA2","type":"V","lat":33.942528,"lon":69.719078,"abbr":"ALIKHEYL","name":"Alikheyl'"},
{"feature":"PPLA2","type":"NS","lat":33.942528,"lon":69.719078,"abbr":"علیخېل","name":"علی خېل"},
{"feature":"PPLA2","type":"N","lat":33.942528,"lon":69.719078,"abbr":"ALIKHEL","name":"`Ali Khel"},
{"feature":"PPLA2","type":"V","lat":31.73506,"lon":67.357401,"abbr":"ARGHAR","name":"Arghar"},
{"feature":"PPLA2","type":"V","lat":31.73506,"lon":67.357401,"abbr":"ATGHAR","name":"Atghar"},
{"feature":"PPLA2","type":"VS","lat":31.73506,"lon":67.357401,"abbr":"اتغر","name":"اتغر"},
{"feature":"PPLA2","type":"V","lat":31.73506,"lon":67.357401,"abbr":"ALAQADARIATGHAR","name":"`Alaqadari Atghar"},
{"feature":"PPLA2","type":"V","lat":31.73506,"lon":67.357401,"abbr":"ALAKADARIATGAR","name":"Alakadari-Atgar"},
{"feature":"PPLA2","type":"VS","lat":31.73506,"lon":67.357401,"abbr":"اطغر","name":"اطغر"},
{"feature":"PPLA2","type":"V","lat":31.73506,"lon":67.357401,"abbr":"ATGHAR","name":"Atghar"},
{"feature":"PPLA2","type":"V","lat":31.73506,"lon":67.357401,"abbr":"ALAQEHDARIYEATGHAR","name":"`Alaqehdari-ye Atghar"},
{"feature":"PPLA2","type":"V","lat":31.73506,"lon":67.357401,"abbr":"ATAGHAR","name":"Ataghar"},
{"feature":"PPLA2","type":"N","lat":31.73506,"lon":67.357401,"abbr":"ALAQAHDARIATGHAR","name":"`Alaqahdari Atghar"},
{"feature":"PPLA2","type":"NS","lat":31.73506,"lon":67.357401,"abbr":"علاقهدارئاټغر","name":"علاقهدارئ اټغر"},
{"feature":"PPLA2","type":"V","lat":36.979844,"lon":70.739284,"abbr":"SHAHARAN","name":"Shaharan"},
{"feature":"PPLA2","type":"NS","lat":36.979844,"lon":70.739284,"abbr":"شهران","name":"شهران"},
{"feature":"PPLA2","type":"V","lat":36.979844,"lon":70.739284,"abbr":"SAHRAN","name":"Sahran"},
{"feature":"PPLA2","type":"N","lat":36.979844,"lon":70.739284,"abbr":"SHAHRAN","name":"Shahran"},
{"feature":"PPLA2","type":"NS","lat":38.041189,"lon":70.472982,"abbr":"قلعۀکوف","name":"قلعۀ کوف"},
{"feature":"PPLA2","type":"V","lat":38.041189,"lon":70.472982,"abbr":"QALAIKOF","name":"Qala-i-Kof"},
{"feature":"PPLA2","type":"V","lat":38.041189,"lon":70.472982,"abbr":"KALAKUF","name":"Kala Kuf"},
{"feature":"PPLA2","type":"V","lat":38.041189,"lon":70.472982,"abbr":"QALEHYEKUF","name":"Qal`eh-ye Kuf"},
{"feature":"PPLA2","type":"V","lat":38.041189,"lon":70.472982,"abbr":"QALAIKOT","name":"Qala-i-Kot"},
{"feature":"PPLA2","type":"V","lat":38.041189,"lon":70.472982,"abbr":"QALAIKUF","name":"Qal'a-i-Kuf"},
{"feature":"PPLA2","type":"N","lat":38.041189,"lon":70.472982,"abbr":"QALAHYEKUF","name":"Qal`ah-ye Kuf"},
{"feature":"PPLA2","type":"NS","lat":33.437782,"lon":69.02774,"abbr":"زرمت","name":"زرمت"},
{"feature":"PPLA2","type":"V","lat":33.437782,"lon":69.02774,"abbr":"ZORMAT","name":"Zormat"},
{"feature":"PPLA2","type":"V","lat":33.437782,"lon":69.02774,"abbr":"ZURMAT","name":"Zurmat"},
{"feature":"PPLA2","type":"V","lat":33.437782,"lon":69.02774,"abbr":"ZARMAL","name":"Zarmal"},
{"feature":"PPLA2","type":"N","lat":33.437782,"lon":69.02774,"abbr":"ZURMAT","name":"Zurmat"},
{"feature":"PPLA2","type":"V","lat":33.437782,"lon":69.02774,"abbr":"BAZAREZURMAT","name":"Bazar-e Zurmat"},
{"feature":"PPLA2","type":"VS","lat":33.437782,"lon":69.02774,"abbr":"بازارزرمت","name":"بازار زرمت"},
{"feature":"PPLA2","type":"V","lat":36.135292,"lon":65.829697,"abbr":"SAIAD","name":"Saiad"},
{"feature":"PPLA2","type":"NS","lat":36.135292,"lon":65.829697,"abbr":"صیاد","name":"صیاد"},
{"feature":"PPLA2","type":"VS","lat":33.690323,"lon":63.863606,"abbr":"ساغر","name":"ساغر"},
{"feature":"PPLA2","type":"N","lat":33.690323,"lon":63.863606,"abbr":"TITAN","name":"Titan"},
{"feature":"PPLA2","type":"V","lat":33.690323,"lon":63.863606,"abbr":"DEHTITAN","name":"Deh Titan"},
{"feature":"PPLA2","type":"NS","lat":33.690323,"lon":63.863606,"abbr":"تیتان","name":"تیتان"},
{"feature":"PPLA2","type":"V","lat":34.551319,"lon":65.793022,"abbr":"DAULATYAR","name":"Daulat Yar"},
{"feature":"PPLA2","type":"V","lat":34.551319,"lon":65.793022,"abbr":"DAWTATYAR","name":"Dawtatyar"},
{"feature":"PPLA2","type":"N","lat":34.551319,"lon":65.793022,"abbr":"DOWLATYAR","name":"Dowlatyar"},
{"feature":"PPLA2","type":"NS","lat":34.551319,"lon":65.793022,"abbr":"دولتیار","name":"دولتیار"},
{"feature":"PPLA2","type":"V","lat":34.551319,"lon":65.793022,"abbr":"DOWLATYAR","name":"Dowlat Yar"},
{"feature":"PPLA2","type":"VS","lat":34.551319,"lon":65.793022,"abbr":"دولتیار","name":"دولت یار"},
{"feature":"PPLA2","type":"V","lat":34.551319,"lon":65.793022,"abbr":"TAHTEDOWLATYAR","name":"Taht-e Dowlatyar"},
{"feature":"PPLA2","type":"V","lat":34.551319,"lon":65.793022,"abbr":"DAOLATYAR","name":"Daolat Yar"},
{"feature":"PPLA2","type":"V","lat":34.551319,"lon":65.793022,"abbr":"DAWLATYAR","name":"Dawlatyar"},
{"feature":"PPLA2","type":"V","lat":35.584191,"lon":63.329563,"abbr":"BALAMURGHAB","name":"Bala Murghab"},
{"feature":"PPLA2","type":"V","lat":35.584191,"lon":63.329563,"abbr":"MORGHAB","name":"Morghab"},
{"feature":"PPLA2","type":"NS","lat":35.584191,"lon":63.329563,"abbr":"بالامرغاب","name":"بالا مرغاب"},
{"feature":"PPLA2","type":"N","lat":35.584191,"lon":63.329563,"abbr":"BALAMURGHAB","name":"Bala Murghab"},
{"feature":"PPLA2","type":"N","lat":35.087955,"lon":63.067796,"abbr":"ABEKAMARI","name":"Ab-e Kamari"},
{"feature":"PPLA2","type":"V","lat":35.087955,"lon":63.067796,"abbr":"ABIKAMARI","name":"Ab-i-Kamari"},
{"feature":"PPLA2","type":"NS","lat":35.087955,"lon":63.067796,"abbr":"آبکمری","name":"آب کمری"},
{"feature":"PPLA2","type":"V","lat":35.948308,"lon":66.42132,"abbr":"KALASANGCHARAK","name":"Kala Sangcharak"},
{"feature":"PPLA2","type":"V","lat":35.948308,"lon":66.42132,"abbr":"TUKSAR","name":"Tuksar"},
{"feature":"PPLA2","type":"V","lat":35.948308,"lon":66.42132,"abbr":"SANGCHARAK","name":"Sangcharak"},
{"feature":"PPLA2","type":"NS","lat":35.948308,"lon":66.42132,"abbr":"تکزار","name":"تکزار"},
{"feature":"PPLA2","type":"VS","lat":35.948308,"lon":66.42132,"abbr":"توکزار","name":"توکزار"},
{"feature":"PPLA2","type":"N","lat":35.948308,"lon":66.42132,"abbr":"TUKZAR","name":"Tukzar"},
{"feature":"PPLA2","type":"V","lat":35.948308,"lon":66.42132,"abbr":"TUKZAR","name":"Tukzar"},
{"feature":"PPLA2","type":"V","lat":35.948308,"lon":66.42132,"abbr":"TOKZAR","name":"Tokzar"},
{"feature":"PPLA2","type":"V","lat":35.948308,"lon":66.42132,"abbr":"TAKZAR","name":"Takzar"},
{"feature":"PPLA2","type":"V","lat":35.948308,"lon":66.42132,"abbr":"SANGCARAK","name":"Sangcarak"},
{"feature":"PPLA2","type":"V","lat":35.948308,"lon":66.42132,"abbr":"QALEHSANGCHAREK","name":"Qal`eh Sangcharek"},
{"feature":"PPLA2","type":"V","lat":35.948308,"lon":66.42132,"abbr":"QALASANGCHARAK","name":"Qala Sangcharak"},
{"feature":"PPLA2","type":"VS","lat":35.766644,"lon":65.764862,"abbr":"کوهستانات","name":"کوهستانات"},
{"feature":"PPLA2","type":"N","lat":35.766644,"lon":65.764862,"abbr":"PASNAY","name":"Pasnay"},
{"feature":"PPLA2","type":"NS","lat":35.766644,"lon":65.764862,"abbr":"پسنی","name":"پسنی"},
{"feature":"PPLA2","type":"V","lat":35.766644,"lon":65.764862,"abbr":"KOHISTANAT","name":"Kohistanat"},
{"feature":"PPLA2","type":"N","lat":36.099165,"lon":66.208226,"abbr":"SOZMAHQALAH","name":"Sozmah Qal`ah"},
{"feature":"PPLA2","type":"NS","lat":36.099165,"lon":66.208226,"abbr":"سوزمهقلعه","name":"سوزمه قلعه"},
{"feature":"PPLA2","type":"V","lat":36.099165,"lon":66.208226,"abbr":"SAOZMAKALA","name":"Saozma Kala"},
{"feature":"PPLA2","type":"V","lat":36.099165,"lon":66.208226,"abbr":"SOWZMEHQALEH","name":"Sowzmeh Qal`eh"},
{"feature":"PPLA2","type":"V","lat":36.099165,"lon":66.208226,"abbr":"SAOZMAQALA","name":"Saozma Qala"},
{"feature":"PPLA2","type":"N","lat":36.135292,"lon":65.829697,"abbr":"SAYAD","name":"Sayad"},
{"feature":"PPLA2","type":"V","lat":36.135292,"lon":65.829697,"abbr":"SEYYED","name":"Seyyed"},
{"feature":"PPLA2","type":"V","lat":36.135292,"lon":65.829697,"abbr":"SAYAD","name":"Sayad"},
{"feature":"PPLA2","type":"V","lat":36.135292,"lon":65.829697,"abbr":"SAIYID","name":"Saiyid"},
{"feature":"PPLA2","type":"V","lat":34.501408,"lon":66.279965,"abbr":"LALWASARJANGAL","name":"La`l wa Sar Jangal"},
{"feature":"PPLA2","type":"VS","lat":34.501408,"lon":66.279965,"abbr":"لعلوسرجنگل","name":"لعل و سر جنگل"},
{"feature":"PPLA2","type":"N","lat":34.501408,"lon":66.279965,"abbr":"LAL","name":"La`l"},
{"feature":"PPLA2","type":"V","lat":34.501408,"lon":66.279965,"abbr":"LALOSARJANGAL","name":"La`losarjangal"},
{"feature":"PPLA2","type":"V","lat":34.501408,"lon":66.279965,"abbr":"LAL","name":"Lal'"},
{"feature":"PPLA2","type":"V","lat":34.501408,"lon":66.279965,"abbr":"QARYEHYELAL","name":"Qaryeh-ye La`l"},
{"feature":"PPLA2","type":"V","lat":34.501408,"lon":66.279965,"abbr":"LALVASARJANGAL","name":"La`l va Sar Jangal"},
{"feature":"PPLA2","type":"NS","lat":34.501408,"lon":66.279965,"abbr":"لعل","name":"لعل"},
{"feature":"PPLA2","type":"V","lat":33.521176,"lon":64.421156,"abbr":"TAIWARA","name":"Taiwara"},
{"feature":"PPLA2","type":"V","lat":33.521176,"lon":64.421156,"abbr":"QALEHIGHOR","name":"Qal`eh-i-Ghor"},
{"feature":"PPLA2","type":"V","lat":33.521176,"lon":64.421156,"abbr":"TEYVAREH","name":"Teyvareh"},
{"feature":"PPLA2","type":"N","lat":33.521176,"lon":64.421156,"abbr":"TAYWARAH","name":"Taywarah"},
{"feature":"PPLA2","type":"NS","lat":33.521176,"lon":64.421156,"abbr":"تيوره","name":"تيوره"},
{"feature":"PPLA2","type":"N","lat":33.68956,"lon":64.853103,"abbr":"PASABAND","name":"Pasaband"},
{"feature":"PPLA2","type":"NS","lat":33.68956,"lon":64.853103,"abbr":"پسابند","name":"پسابند"},
{"feature":"PPLA2","type":"V","lat":33.68956,"lon":64.853103,"abbr":"PASABAND","name":"Pasaband"},
{"feature":"PPLA2","type":"N","lat":34.107375,"lon":64.305199,"abbr":"SHAHRAK","name":"Shahrak"},
{"feature":"PPLA2","type":"V","lat":34.107375,"lon":64.305199,"abbr":"SHAKHRAK","name":"Shakhrak"},
{"feature":"PPLA2","type":"V","lat":34.107375,"lon":64.305199,"abbr":"QALEHYEBATIDARRAH","name":"Qal`eh-ye Bati Darrah"},
{"feature":"PPLA2","type":"V","lat":34.107375,"lon":64.305199,"abbr":"BATIDARA","name":"Bati Dara"},
{"feature":"PPLA2","type":"V","lat":34.107375,"lon":64.305199,"abbr":"SHAHRAG","name":"Shahrag"},
{"feature":"PPLA2","type":"NS","lat":34.107375,"lon":64.305199,"abbr":"شهرک","name":"شهرک"},
{"feature":"PPLA2","type":"V","lat":34.107375,"lon":64.305199,"abbr":"SAHRAK","name":"Sahrak"},
{"feature":"PPLA2","type":"V","lat":34.107375,"lon":64.305199,"abbr":"WALASHAHRAK","name":"Wala Shahrak"},
{"feature":"PPLA2","type":"V","lat":34.107375,"lon":64.305199,"abbr":"SHARAK","name":"Sharak"},
{"feature":"PPLA2","type":"V","lat":34.107375,"lon":64.305199,"abbr":"SHAHRAK","name":"Shahrak"},
{"feature":"PPLA2","type":"V","lat":34.107375,"lon":64.305199,"abbr":"QALABATIDARA","name":"Qala Bati Dara"},
{"feature":"PPLA2","type":"V","lat":34.107375,"lon":64.305199,"abbr":"MARKAZESHAHRAK","name":"Markaz-e Shahrak"},
{"feature":"PPLA2","type":"V","lat":34.107375,"lon":64.305199,"abbr":"KALASHAHRAK","name":"Kala Shahrak"},
{"feature":"PPLA2","type":"V","lat":34.107375,"lon":64.305199,"abbr":"KALASHAHARAK","name":"Kala Shaharak"},
{"feature":"PPLA2","type":"V","lat":34.107375,"lon":64.305199,"abbr":"QALEHSHAHARAK","name":"Qal`eh Shaharak"},
{"feature":"PPLA2","type":"V","lat":34.107375,"lon":64.305199,"abbr":"QALASHARAK","name":"Qala Sharak"},
{"feature":"PPLA2","type":"V","lat":34.107375,"lon":64.305199,"abbr":"QALASHAHARAK","name":"Qala Shaharak"},
{"feature":"PPLA2","type":"N","lat":33.975086,"lon":63.72868,"abbr":"TULAK","name":"Tulak"},
{"feature":"PPLA2","type":"NS","lat":33.975086,"lon":63.72868,"abbr":"تولک","name":"تولک"},
{"feature":"PPLA2","type":"V","lat":33.690323,"lon":63.863606,"abbr":"SAGHAR","name":"Saghar"},
{"feature":"PPLA2","type":"V","lat":37.126035,"lon":69.83045,"abbr":"ROSTAQ","name":"Rostaq"},
{"feature":"PPLA2","type":"V","lat":37.126035,"lon":69.83045,"abbr":"RUSTAK","name":"Rustak"},
{"feature":"PPLA2","type":"V","lat":37.126035,"lon":69.83045,"abbr":"RUSTAQ","name":"Rustaq"},
{"feature":"PPLA2","type":"N","lat":37.126035,"lon":69.83045,"abbr":"RUSTAQ","name":"Rustaq"},
{"feature":"PPLA2","type":"NS","lat":37.126035,"lon":69.83045,"abbr":"رستاق","name":"رستاق"},
{"feature":"PPLA2","type":"V","lat":37.065883,"lon":69.421257,"abbr":"KHVAJEHGHAR","name":"Khvajeh Ghar"},
{"feature":"PPLA2","type":"V","lat":37.065883,"lon":69.421257,"abbr":"KHWAJAIGHAR","name":"Khwaja-i-Ghar"},
{"feature":"PPLA2","type":"V","lat":37.065883,"lon":69.421257,"abbr":"KHWAJAIGAR","name":"Khwaja-i-Gar"},
{"feature":"PPLA2","type":"V","lat":37.065883,"lon":69.421257,"abbr":"KHWAJAGHAR","name":"Khwaja Ghar"},
{"feature":"PPLA2","type":"V","lat":37.065883,"lon":69.421257,"abbr":"KHOJAIGAR","name":"Khoja-i-Gar"},
{"feature":"PPLA2","type":"V","lat":37.065883,"lon":69.421257,"abbr":"KHWAJAGAR","name":"Khwaja Gar"},
{"feature":"PPLA2","type":"V","lat":37.065883,"lon":69.421257,"abbr":"KHODZHAGAR","name":"Khodzhagar"},
{"feature":"PPLA2","type":"N","lat":37.065883,"lon":69.421257,"abbr":"KHWAJAHGHAR","name":"Khwajah Ghar"},
{"feature":"PPLA2","type":"NS","lat":37.065883,"lon":69.421257,"abbr":"خواجهغار","name":"خواجه غار"},
{"feature":"PPLA2","type":"N","lat":34.787639,"lon":69.05878,"abbr":"ZARGARAN","name":"Zargaran"},
{"feature":"PPLA2","type":"V","lat":36.919393,"lon":65.064904,"abbr":"QORGHAN","name":"Qorghan"},
{"feature":"PPLA2","type":"V","lat":36.919393,"lon":65.064904,"abbr":"KURGHAN","name":"Kurghan"},
{"feature":"PPLA2","type":"V","lat":35.378197,"lon":64.774567,"abbr":"LOWLASH","name":"Lowlash"},
{"feature":"PPLA2","type":"N","lat":35.378197,"lon":64.774567,"abbr":"LASH","name":"Lash"},
{"feature":"PPLA2","type":"VS","lat":35.378197,"lon":64.774567,"abbr":"لولاش","name":"لولاش"},
{"feature":"PPLA2","type":"V","lat":35.378197,"lon":64.774567,"abbr":"LAS","name":"Las"},
{"feature":"PPLA2","type":"V","lat":35.378197,"lon":64.774567,"abbr":"LAORLUSH","name":"Laorlush"},
{"feature":"PPLA2","type":"NS","lat":35.378197,"lon":64.774567,"abbr":"لاش","name":"لاش"},
{"feature":"PPLA2","type":"V","lat":35.378197,"lon":64.774567,"abbr":"LAORLASH","name":"Laorlash"},
{"feature":"PPLA2","type":"V","lat":35.378197,"lon":64.774567,"abbr":"KOHESTAN","name":"Kohestan"},
{"feature":"PPLA2","type":"V","lat":35.378197,"lon":64.774567,"abbr":"LOWRLASH","name":"Lowr Lash"},
{"feature":"PPLA2","type":"V","lat":35.378197,"lon":64.774567,"abbr":"LAWLASH","name":"Lawlash"},
{"feature":"PPLA2","type":"V","lat":35.378197,"lon":64.774567,"abbr":"LAWLAS","name":"Lawlas"},
{"feature":"PPLA2","type":"V","lat":35.378197,"lon":64.774567,"abbr":"LAURLAS","name":"Laurlas"},
{"feature":"PPLA2","type":"V","lat":35.378197,"lon":64.774567,"abbr":"LAURLASH","name":"Laurlash"},
{"feature":"PPLA2","type":"N","lat":36.830063,"lon":65.042992,"abbr":"QARAMQOL","name":"Qaram Qol"},
{"feature":"PPLA2","type":"V","lat":36.830063,"lon":65.042992,"abbr":"QARAMQOL","name":"Qaramqol"},
{"feature":"PPLA2","type":"V","lat":36.830063,"lon":65.042992,"abbr":"QARAMQUL","name":"Qaramqul"},
{"feature":"PPLA2","type":"NS","lat":36.830063,"lon":65.042992,"abbr":"قرمقول","name":"قرم قول"},
{"feature":"PPLA2","type":"N","lat":37.001082,"lon":65.223922,"abbr":"CHAHARBAGH","name":"Chahar Bagh"},
{"feature":"PPLA2","type":"NS","lat":37.001082,"lon":65.223922,"abbr":"چهارباغ","name":"چهار باغ"},
{"feature":"PPLA2","type":"V","lat":37.001082,"lon":65.223922,"abbr":"KHANCARBAGH","name":"Khancarbagh"},
{"feature":"PPLA2","type":"V","lat":37.001082,"lon":65.223922,"abbr":"KHANECHARBAGH","name":"Khan-e Char Bagh"},
{"feature":"PPLA2","type":"V","lat":37.001082,"lon":65.223922,"abbr":"KHANCHARBAG","name":"Khan'-charbag'"},
{"feature":"PPLA2","type":"V","lat":37.001082,"lon":65.223922,"abbr":"KHANCHAHARBAGH","name":"Khan Chahar Bagh"},
{"feature":"PPLA2","type":"V","lat":37.001082,"lon":65.223922,"abbr":"CHARBAGH","name":"Char Bagh"},
{"feature":"PPLA2","type":"V","lat":37.001082,"lon":65.223922,"abbr":"KHANECHAHARBAGH","name":"Khan-e Chahar Bagh"},
{"feature":"PPLA2","type":"V","lat":37.001082,"lon":65.223922,"abbr":"QANICHAHARBAGH","name":"Qani Chahar Bagh"},
{"feature":"PPLA2","type":"V","lat":37.001082,"lon":65.223922,"abbr":"KHANCHEKHARBAR","name":"Khan-Chekhar-Bar"},
{"feature":"PPLA2","type":"V","lat":34.832676,"lon":69.077557,"abbr":"TAKHTEISTALIF","name":"Takht-e Istalif"},
{"feature":"PPLA2","type":"VS","lat":34.832676,"lon":69.077557,"abbr":"تختاستالف","name":"تخت استالف"},
{"feature":"PPLA2","type":"N","lat":34.832676,"lon":69.077557,"abbr":"ISTALIF","name":"Istalif"},
{"feature":"PPLA2","type":"V","lat":34.832676,"lon":69.077557,"abbr":"ESTALEF","name":"Estalef"},
{"feature":"PPLA2","type":"V","lat":34.832676,"lon":69.077557,"abbr":"ISTILIF","name":"Istilif"},
{"feature":"PPLA2","type":"NS","lat":34.832676,"lon":69.077557,"abbr":"استالف","name":"استالف"},
{"feature":"PPLA2","type":"V","lat":34.832676,"lon":69.077557,"abbr":"ISTALEF","name":"Istalef"},
{"feature":"PPLA2","type":"V","lat":34.832676,"lon":69.077557,"abbr":"ISTALIF","name":"Istalif"},
{"feature":"PPLA2","type":"VS","lat":34.783706,"lon":69.150012,"abbr":"بازارکلکان","name":"بازار کلکان"},
{"feature":"PPLA2","type":"V","lat":34.783706,"lon":69.150012,"abbr":"KALACHAN","name":"Kala Chan"},
{"feature":"PPLA2","type":"V","lat":34.783706,"lon":69.150012,"abbr":"QALEHYEKHAN","name":"Qal`eh-ye Khan"},
{"feature":"PPLA2","type":"V","lat":34.783706,"lon":69.150012,"abbr":"QALAKHAN","name":"Qala Khan"},
{"feature":"PPLA2","type":"N","lat":34.783706,"lon":69.150012,"abbr":"KALAKAN","name":"Kalakan"},
{"feature":"PPLA2","type":"V","lat":34.783706,"lon":69.150012,"abbr":"KALAKAN","name":"Kalakan"},
{"feature":"PPLA2","type":"V","lat":34.783706,"lon":69.150012,"abbr":"KALAKHAN","name":"Kala Khan"},
{"feature":"PPLA2","type":"NS","lat":34.783706,"lon":69.150012,"abbr":"کلکان","name":"کلکان"},
{"feature":"PPLA2","type":"V","lat":34.783706,"lon":69.150012,"abbr":"BAZAREKALAKAN","name":"Bazar-e Kalakan"},
{"feature":"PPLA2","type":"VS","lat":34.747667,"lon":69.047844,"abbr":"دهنو","name":"ده نو"},
{"feature":"PPLA2","type":"V","lat":34.747667,"lon":69.047844,"abbr":"DEHENAW","name":"Dehe Naw"},
{"feature":"PPLA2","type":"V","lat":34.747667,"lon":69.047844,"abbr":"DAKHINAU","name":"Dakhi-Nau"},
{"feature":"PPLA2","type":"NS","lat":34.747667,"lon":69.047844,"abbr":"دهنو","name":"ده نو"},
{"feature":"PPLA2","type":"N","lat":34.747667,"lon":69.047844,"abbr":"DEHENOW","name":"Deh-e Now"},
{"feature":"PPLA2","type":"V","lat":34.787639,"lon":69.05878,"abbr":"ZARGARAN","name":"Zargaran"},
{"feature":"PPLA2","type":"NS","lat":34.787639,"lon":69.05878,"abbr":"زرگران","name":"زرگران"},
{"feature":"PPLA2","type":"NS","lat":36.291111,"lon":64.862222,"abbr":"قيضآباد","name":"قيض آباد"},
{"feature":"PPLA2","type":"N","lat":36.291111,"lon":64.862222,"abbr":"FAYZABAD","name":"Fayzabad"},
{"feature":"PPLA2","type":"V","lat":36.291111,"lon":64.862222,"abbr":"FEYZABAD","name":"Feyzabad"},
{"feature":"PPLA2","type":"V","lat":36.291111,"lon":64.862222,"abbr":"FAYDZABAD","name":"Faydz Abad"},
{"feature":"PPLA2","type":"V","lat":36.291111,"lon":64.862222,"abbr":"FAIZABAD","name":"Faizabad"},
{"feature":"PPLA2","type":"N","lat":36.432589,"lon":64.920713,"abbr":"DOWLATABAD","name":"Dowlatabad"},
{"feature":"PPLA2","type":"V","lat":36.432589,"lon":64.920713,"abbr":"SHIRINTAGAO","name":"Shirin Tagao"},
{"feature":"PPLA2","type":"V","lat":36.432589,"lon":64.920713,"abbr":"DANLATABAD","name":"Danlatabad"},
{"feature":"PPLA2","type":"V","lat":36.432589,"lon":64.920713,"abbr":"DAWLATABAD","name":"Dawlatabad"},
{"feature":"PPLA2","type":"V","lat":36.432589,"lon":64.920713,"abbr":"DAOLATABAD","name":"Daolatabad"},
{"feature":"PPLA2","type":"V","lat":36.432589,"lon":64.920713,"abbr":"DAULATABAD","name":"Daulatabad"},
{"feature":"PPLA2","type":"NS","lat":36.432589,"lon":64.920713,"abbr":"دولتآباد","name":"دولت آباد"},
{"feature":"PPLA2","type":"N","lat":35.701775,"lon":65.230553,"abbr":"SARCHAKAN","name":"Sar Chakan"},
{"feature":"PPLA2","type":"V","lat":35.701775,"lon":65.230553,"abbr":"SARCAKAN","name":"Sar Cakan"},
{"feature":"PPLA2","type":"NS","lat":35.701775,"lon":65.230553,"abbr":"سرچکان","name":"سر چکان"},
{"feature":"PPLA2","type":"N","lat":36.919393,"lon":65.064904,"abbr":"QURGHAN","name":"Qurghan"},
{"feature":"PPLA2","type":"NS","lat":36.919393,"lon":65.064904,"abbr":"قرغان","name":"قرغان"},
{"feature":"PPLA2","type":"V","lat":36.919393,"lon":65.064904,"abbr":"BAZAREQURGHAN","name":"Bazar-e Qurghan"},
{"feature":"PPLA2","type":"VS","lat":36.919393,"lon":65.064904,"abbr":"بازارقرغان","name":"بازار قرغان"},
{"feature":"PPLA2","type":"V","lat":36.919393,"lon":65.064904,"abbr":"QURGHAN","name":"Qurghan"},
{"feature":"PPLA2","type":"V","lat":36.521149,"lon":68.899849,"abbr":"ALIABAD","name":"`Ali Abad"},
{"feature":"PPLA2","type":"VS","lat":36.521149,"lon":68.899849,"abbr":"АЛИАБАД","name":"Алиабад"},
{"feature":"PPLA2","type":"V","lat":36.521149,"lon":68.899849,"abbr":"ALIABAD","name":"Aliabad"},
{"feature":"PPLA2","type":"V","lat":36.951272,"lon":72.317998,"abbr":"KHANDUD","name":"Khandud"},
{"feature":"PPLA2","type":"NS","lat":36.951272,"lon":72.317998,"abbr":"خندود","name":"خندود"},
{"feature":"PPLA2","type":"V","lat":36.951272,"lon":72.317998,"abbr":"KHANDUT","name":"Khandut"},
{"feature":"PPLA2","type":"N","lat":36.951272,"lon":72.317998,"abbr":"KHANDUD","name":"Khandud"},
{"feature":"PPLA2","type":"V","lat":34.286652,"lon":70.372467,"abbr":"HAFEZAN","name":"Hafezan"},
{"feature":"PPLA2","type":"V","lat":34.286652,"lon":70.372467,"abbr":"KHAFIZAN","name":"Khafizan"},
{"feature":"PPLA2","type":"NS","lat":34.286652,"lon":70.372467,"abbr":"حافظان","name":"حافظان"},
{"feature":"PPLA2","type":"N","lat":34.286652,"lon":70.372467,"abbr":"HAFIZAN","name":"Hafizan"},
{"feature":"PPLA2","type":"N","lat":33.830029,"lon":69.919197,"abbr":"TSAPERAI","name":"Tsaperai"},
{"feature":"PPLA2","type":"VS","lat":33.830029,"lon":69.919197,"abbr":"څپرې","name":"څپرې"},
{"feature":"PPLA2","type":"NS","lat":33.830029,"lon":69.919197,"abbr":"څپری","name":"څپری"},
{"feature":"PPLA2","type":"V","lat":33.830029,"lon":69.919197,"abbr":"CHHAPRI","name":"Chhapri"},
{"feature":"PPLA2","type":"V","lat":33.830029,"lon":69.919197,"abbr":"CHAPRAY","name":"Chapray"},
{"feature":"PPLA2","type":"V","lat":33.830029,"lon":69.919197,"abbr":"CAPARE","name":"Capare"},
{"feature":"PPLA2","type":"V","lat":33.830029,"lon":69.919197,"abbr":"CHAPARE","name":"Chapare"},
{"feature":"PPLA2","type":"V","lat":33.830029,"lon":69.919197,"abbr":"TSAPARE","name":"Tsapare"},
{"feature":"PPLA2","type":"N","lat":33.649155,"lon":69.781204,"abbr":"MAIDANKHULAH","name":"Maidan Khulah"},
{"feature":"PPLA2","type":"V","lat":33.649155,"lon":69.781204,"abbr":"MEYDANKHOLEH","name":"Meydan Kholeh"},
{"feature":"PPLA2","type":"V","lat":33.649155,"lon":69.781204,"abbr":"MAYDANKHULA","name":"Maydankhula"},
{"feature":"PPLA2","type":"V","lat":33.649155,"lon":69.781204,"abbr":"MEYDANKHVOLAH","name":"Meydan Khvolah"},
{"feature":"PPLA2","type":"V","lat":33.649155,"lon":69.781204,"abbr":"MAYDANKHOLEH","name":"Maydan Kholeh"},
{"feature":"PPLA2","type":"NS","lat":33.649155,"lon":69.781204,"abbr":"میدانخوله","name":"میدان خوله"},
{"feature":"PPLA2","type":"N","lat":33.670666,"lon":69.329826,"abbr":"SALAMKHEL","name":"Salam Khel"},
{"feature":"PPLA2","type":"NS","lat":33.670666,"lon":69.329826,"abbr":"سلامخېل","name":"سلام خېل"},
{"feature":"PPLA2","type":"V","lat":34.493761,"lon":69.274274,"abbr":"QARYEHYEBAGRAMI","name":"Qaryeh-ye Bagrami"},
{"feature":"PPLA2","type":"V","lat":34.493761,"lon":69.274274,"abbr":"BAGRAME","name":"Bagrame"},
{"feature":"PPLA2","type":"V","lat":34.493761,"lon":69.274274,"abbr":"BAGRAMI","name":"Bagrami"},
{"feature":"PPLA2","type":"V","lat":34.493761,"lon":69.274274,"abbr":"BIGRAMI","name":"Bigrami"},
{"feature":"PPLA2","type":"NS","lat":34.493761,"lon":69.274274,"abbr":"بگرامی","name":"بگرامی"},
{"feature":"PPLA2","type":"N","lat":34.493761,"lon":69.274274,"abbr":"BAGRAMI","name":"Bagrami"},
{"feature":"PPLA2","type":"VS","lat":34.599721,"lon":69.259927,"abbr":"پلسنگی","name":"پل سنگی"},
{"feature":"PPLA2","type":"V","lat":34.599721,"lon":69.259927,"abbr":"PULISANGI","name":"Puli-Sangi"},
{"feature":"PPLA2","type":"V","lat":34.599721,"lon":69.259927,"abbr":"PULESANGI","name":"Pule Sangi"},
{"feature":"PPLA2","type":"V","lat":34.599721,"lon":69.259927,"abbr":"POLESANGI","name":"Pol-e Sangi"},
{"feature":"PPLA2","type":"NS","lat":34.599721,"lon":69.259927,"abbr":"پلسنگی","name":"پل سنگی"},
{"feature":"PPLA2","type":"N","lat":34.599721,"lon":69.259927,"abbr":"PULESANGI","name":"Pul-e Sangi"},
{"feature":"PPLA2","type":"VS","lat":34.599721,"lon":69.259927,"abbr":"قریهسنگی","name":"قریه سنگی"},
{"feature":"PPLA2","type":"V","lat":34.599721,"lon":69.259927,"abbr":"QARYAHYESANGI","name":"Qaryah-ye Sangi"},
{"feature":"PPLA2","type":"V","lat":36.81665,"lon":70.102108,"abbr":"MASHAD","name":"Mashad"},
{"feature":"PPLA2","type":"NS","lat":36.81665,"lon":70.102108,"abbr":"مشهد","name":"مشهد"},
{"feature":"PPLA2","type":"N","lat":36.81665,"lon":70.102108,"abbr":"MASHHAD","name":"Mashhad"},
{"feature":"PPLA2","type":"N","lat":36.691324,"lon":68.790927,"abbr":"DOWRERABAT","name":"Dowr-e Rabat"},
{"feature":"PPLA2","type":"V","lat":36.691324,"lon":68.790927,"abbr":"CHARDARAH","name":"Char Darah"},
{"feature":"PPLA2","type":"VS","lat":36.691324,"lon":68.790927,"abbr":"چاردره","name":"چار دره"},
{"feature":"PPLA2","type":"V","lat":36.691324,"lon":68.790927,"abbr":"RIBAT","name":"Ribat"},
{"feature":"PPLA2","type":"V","lat":36.691324,"lon":68.790927,"abbr":"DAWRIRABAT","name":"Dawr-i-Rabat"},
{"feature":"PPLA2","type":"V","lat":36.691324,"lon":68.790927,"abbr":"CARDARA","name":"Cardara"},
{"feature":"PPLA2","type":"VS","lat":36.691324,"lon":68.790927,"abbr":"ДАВРИРАБАТ","name":"Даври-Рабат"},
{"feature":"PPLA2","type":"VS","lat":36.691324,"lon":68.790927,"abbr":"دوررباط","name":"دور رباط"},
{"feature":"PPLA2","type":"V","lat":36.691324,"lon":68.790927,"abbr":"CHAHARDARREH","name":"Chahar Darreh"},
{"feature":"PPLA2","type":"V","lat":36.691324,"lon":68.790927,"abbr":"CHARDARREH","name":"Char Darreh"},
{"feature":"PPLA2","type":"V","lat":36.691324,"lon":68.790927,"abbr":"DAVRIRABAT","name":"Davri-Rabat"},
{"feature":"PPLA2","type":"NS","lat":36.691324,"lon":68.790927,"abbr":"دوررباط","name":"دور رباط"},
{"feature":"PPLA2","type":"N","lat":36.521149,"lon":68.899849,"abbr":"ALIABAD","name":"`Aliabad"},
{"feature":"PPLA2","type":"NS","lat":36.521149,"lon":68.899849,"abbr":"علیآباد","name":"علی آباد"},
{"feature":"PPLA2","type":"V","lat":37.188974,"lon":68.936438,"abbr":"KHWAJAIMANSAIYID","name":"Khwaja Iman Saiyid"},
{"feature":"PPLA2","type":"V","lat":37.188974,"lon":68.936438,"abbr":"KHWAJA","name":"Khwaja"},
{"feature":"PPLA2","type":"V","lat":37.188974,"lon":68.936438,"abbr":"IMAMSAHEB","name":"Imam Saheb"},
{"feature":"PPLA2","type":"V","lat":37.188974,"lon":68.936438,"abbr":"EMAMSAHEB","name":"Emam Saheb"},
{"feature":"PPLA2","type":"V","lat":37.188974,"lon":68.936438,"abbr":"IMAMSAKHIB","name":"Imamsakhib"},
{"feature":"PPLA2","type":"V","lat":37.188974,"lon":68.936438,"abbr":"KHWAJAIMAMSAIYID","name":"Khwaja Imam Saiyid"},
{"feature":"PPLA2","type":"V","lat":37.188974,"lon":68.936438,"abbr":"HAZRAT","name":"Hazrat"},
{"feature":"PPLA2","type":"N","lat":37.188974,"lon":68.936438,"abbr":"IMAMSAHIB","name":"Imam Sahib"},
{"feature":"PPLA2","type":"NS","lat":37.188974,"lon":68.936438,"abbr":"امامصاحب","name":"امام صاحب"},
{"feature":"PPLA2","type":"N","lat":36.683037,"lon":69.112793,"abbr":"KHANABAD","name":"Khanabad"},
{"feature":"PPLA2","type":"VS","lat":36.683037,"lon":69.112793,"abbr":"ХАНАБАД","name":"Ханабад"},
{"feature":"PPLA2","type":"V","lat":36.683037,"lon":69.112793,"abbr":"KHANABAD","name":"Khanabad"},
{"feature":"PPLA2","type":"NS","lat":36.683037,"lon":69.112793,"abbr":"خانآباد","name":"خان آباد"},
{"feature":"PPLA2","type":"V","lat":36.683037,"lon":69.112793,"abbr":"KHANABAD","name":"Khan Abad"},
{"feature":"PPLA2","type":"N","lat":36.976593,"lon":68.572239,"abbr":"AQTAPAH","name":"Aq Tapah"},
{"feature":"PPLA2","type":"VS","lat":36.976593,"lon":68.572239,"abbr":"АКТАПА","name":"Актапа"},
{"feature":"PPLA2","type":"V","lat":36.976593,"lon":68.572239,"abbr":"TEPE","name":"Tepe"},
{"feature":"PPLA2","type":"V","lat":36.976593,"lon":68.572239,"abbr":"AQTAPA","name":"Aq Tapa"},
{"feature":"PPLA2","type":"V","lat":36.976593,"lon":68.572239,"abbr":"AKTAPA","name":"Aktapa"},
{"feature":"PPLA2","type":"V","lat":36.976593,"lon":68.572239,"abbr":"AQTAPPEH","name":"Aq Tappeh"},
{"feature":"PPLA2","type":"V","lat":36.976593,"lon":68.572239,"abbr":"AQTOBA","name":"Aq Toba"},
{"feature":"PPLA2","type":"NS","lat":36.976593,"lon":68.572239,"abbr":"آقتپه","name":"آق تپه"},
{"feature":"PPLA2","type":"V","lat":36.976593,"lon":68.572239,"abbr":"AQTEPAH","name":"Aq Tepah"},
{"feature":"PPLA2","type":"V","lat":36.028663,"lon":70.772575,"abbr":"KORANVAMONJAN","name":"Koran va Monjan"},
{"feature":"PPLA2","type":"V","lat":36.028663,"lon":70.772575,"abbr":"KORANOMUNJAN","name":"Koranomunjan"},
{"feature":"PPLA2","type":"V","lat":36.028663,"lon":70.772575,"abbr":"KERANVAMENJAN","name":"Keran va Menjan"},
{"feature":"PPLA2","type":"V","lat":36.028663,"lon":70.772575,"abbr":"KERANAVAMANJAH","name":"Kerana va Manjah"},
{"feature":"PPLA2","type":"V","lat":36.028663,"lon":70.772575,"abbr":"ALAQEHDARIYEKORANVAMONJAN","name":"`Alaqehdari-ye Koran va Monjan"},
{"feature":"PPLA2","type":"N","lat":36.028663,"lon":70.772575,"abbr":"ALAQAHDARIKIRANWAMUNJAN","name":"`Alaqahdari Kiran wa Munjan"},
{"feature":"PPLA2","type":"NS","lat":36.028663,"lon":70.772575,"abbr":"علاقهداریکرانومنجان","name":"علاقه داری کران و منجان"},
{"feature":"PPLA2","type":"V","lat":36.028663,"lon":70.772575,"abbr":"KIRANWAMUNJAN","name":"Kiran wa Munjan"},
{"feature":"PPLA2","type":"V","lat":33.051945,"lon":68.65,"abbr":"YOSUFKHEL","name":"Yosuf Khel"},
{"feature":"PPLA2","type":"V","lat":33.051945,"lon":68.65,"abbr":"ALAKADARIYUSUFKHEYL","name":"Alakadari-Yusufkheyl'"},
{"feature":"PPLA2","type":"V","lat":33.051945,"lon":68.65,"abbr":"ALAQADARIYOSUFKHEL","name":"`Alaqadari Yosufkhel"},
{"feature":"PPLA2","type":"V","lat":33.051945,"lon":68.65,"abbr":"ALAQEHDARIYUSOFKHEYL","name":"`Alaqehdari Yusofkheyl"},
{"feature":"PPLA2","type":"N","lat":33.051945,"lon":68.65,"abbr":"ALAQAHDARIYOSUFKHEL","name":"`Alaqahdari Yosuf Khel"},
{"feature":"PPLA2","type":"V","lat":33.051945,"lon":68.65,"abbr":"AAQADARIYOSUFKHEL","name":"`Aaqadari Yosufkhel"},
{"feature":"PPLA2","type":"V","lat":33.051945,"lon":68.65,"abbr":"ALAQEHDARIYEYUSOFKHEYL","name":"`Alaqehdari-ye Yusof Kheyl"},
{"feature":"PPLA2","type":"NS","lat":33.051945,"lon":68.65,"abbr":"علاقهدارییوسفخېل","name":"علاقه داری یوسف خېل"},
{"feature":"PPLA2","type":"V","lat":33.436204,"lon":70.067109,"abbr":"ALISERALAQADARI","name":"Aliser 'Alaqadari"},
{"feature":"PPLA2","type":"VS","lat":33.436204,"lon":70.067109,"abbr":"علیشيرعلاقهداری","name":"علی شير علاقهداری"},
{"feature":"PPLA2","type":"V","lat":33.436204,"lon":70.067109,"abbr":"ALISHAHR","name":"Alishahr"},
{"feature":"PPLA2","type":"V","lat":33.436204,"lon":70.067109,"abbr":"ALISHERALAKADARI","name":"Alisheralakadari"},
{"feature":"PPLA2","type":"V","lat":33.436204,"lon":70.067109,"abbr":"ALISHIRALAQEHDARI","name":"`Ali Shir `Alaqehdari"},
{"feature":"PPLA2","type":"V","lat":33.436204,"lon":70.067109,"abbr":"ALISHER","name":"`Ali Sher"},
{"feature":"PPLA2","type":"VS","lat":33.436204,"lon":70.067109,"abbr":"علیشېر","name":"علی شېر"},
{"feature":"PPLA2","type":"N","lat":33.436204,"lon":70.067109,"abbr":"ALISHERALAQAHDARI","name":"`Ali Sher `Alaqahdari"},
{"feature":"PPLA2","type":"NS","lat":33.436204,"lon":70.067109,"abbr":"علیشېرعلاقهداری","name":"علی شېر علاقه داری"},
{"feature":"PPLA2","type":"V","lat":34.649212,"lon":70.5914,"abbr":"QALASAHI","name":"Qal`a Sahi"},
{"feature":"PPLA2","type":"V","lat":34.649212,"lon":70.5914,"abbr":"QALASAHI","name":"Qal`a Sahi"},
{"feature":"PPLA2","type":"V","lat":34.649212,"lon":70.5914,"abbr":"KALASHAKHI","name":"Kalashakhi"},
{"feature":"PPLA2","type":"V","lat":34.649212,"lon":70.5914,"abbr":"QALLAISAHI","name":"Qalla-ISahi"},
{"feature":"PPLA2","type":"V","lat":34.649212,"lon":70.5914,"abbr":"QALEHYESHAHI","name":"Qal`eh-ye Shahi"},
{"feature":"PPLA2","type":"NS","lat":34.649212,"lon":70.5914,"abbr":"قلعۀشاهی","name":"قلعۀ شاهی"},
{"feature":"PPLA2","type":"N","lat":34.649212,"lon":70.5914,"abbr":"QALAHYESHAHI","name":"Qal`ah-ye Shahi"},
{"feature":"PPLA2","type":"NS","lat":35.97744,"lon":65.378281,"abbr":"درزآب","name":"درز آب"},
{"feature":"PPLA2","type":"V","lat":35.97744,"lon":65.378281,"abbr":"DARZAB","name":"Darzab"},
{"feature":"PPLA2","type":"V","lat":35.97744,"lon":65.378281,"abbr":"DURZAB","name":"Durzab"},
{"feature":"PPLA2","type":"N","lat":35.97744,"lon":65.378281,"abbr":"DARZAB","name":"Darzab"},
{"feature":"PPLA2","type":"V","lat":35.284031,"lon":70.170174,"abbr":"MUNDUL","name":"Mundul"},
{"feature":"PPLA2","type":"V","lat":35.284031,"lon":70.170174,"abbr":"MANDOL","name":"Mandol"},
{"feature":"PPLA2","type":"V","lat":35.284031,"lon":70.170174,"abbr":"MANDUL","name":"Mandul"},
{"feature":"PPLA2","type":"V","lat":35.284031,"lon":70.170174,"abbr":"MUNDOL","name":"Mundol'"},
{"feature":"PPLA2","type":"VS","lat":35.284031,"lon":70.170174,"abbr":"منډول","name":"منډول"},
{"feature":"PPLA2","type":"V","lat":35.284031,"lon":70.170174,"abbr":"MUNDOL","name":"Mundol"},
{"feature":"PPLA2","type":"N","lat":35.284031,"lon":70.170174,"abbr":"MANDOL","name":"Mandol"},
{"feature":"PPLA2","type":"NS","lat":35.284031,"lon":70.170174,"abbr":"مندول","name":"مندول"},
{"feature":"PPLA2","type":"V","lat":35.121491,"lon":69.23725,"abbr":"JABALUSSIRAJ","name":"Jabal us Siraj"},
{"feature":"PPLA2","type":"V","lat":35.121491,"lon":69.23725,"abbr":"DZHABALUSSARADZH","name":"Dzhabal'-Ussaradzh"},
{"feature":"PPLA2","type":"V","lat":35.121491,"lon":69.23725,"abbr":"PARWAN","name":"Parwan"},
{"feature":"PPLA2","type":"V","lat":35.121491,"lon":69.23725,"abbr":"JIBALASSERAJ","name":"Jibal-as-Seraj"},
{"feature":"PPLA2","type":"V","lat":35.121491,"lon":69.23725,"abbr":"JABULSARAJ","name":"Jabul Saraj"},
{"feature":"PPLA2","type":"V","lat":35.121491,"lon":69.23725,"abbr":"JABLUSSIRAJ","name":"Jabl-us-Siraj"},
{"feature":"PPLA2","type":"V","lat":35.121491,"lon":69.23725,"abbr":"JABLUSSERAJ","name":"Jabl-us-Seraj"},
{"feature":"PPLA2","type":"V","lat":35.121491,"lon":69.23725,"abbr":"JABALUSSARAJ","name":"Jabalussaraj"},
{"feature":"PPLA2","type":"V","lat":35.121491,"lon":69.23725,"abbr":"JABALOSSARAJ","name":"Jabal os Saraj"},
{"feature":"PPLA2","type":"V","lat":35.121491,"lon":69.23725,"abbr":"DJABALULSERADJ","name":"Djabal-ul-Seradj"},
{"feature":"PPLA2","type":"V","lat":35.121491,"lon":69.23725,"abbr":"JABALUSSIRAI","name":"Jabal-us-Sirai"},
{"feature":"PPLA2","type":"NS","lat":35.121491,"lon":69.23725,"abbr":"جبلالسراج","name":"جبل السراج"},
{"feature":"PPLA2","type":"VS","lat":35.05352,"lon":69.256539,"abbr":"ابراهيمخان","name":"ابراهيم خان"},
{"feature":"PPLA2","type":"V","lat":35.05352,"lon":69.256539,"abbr":"QARYAHYEIBRAHIMKHEL","name":"Qaryah-ye Ibrahim Khel"},
{"feature":"PPLA2","type":"VS","lat":35.05352,"lon":69.256539,"abbr":"قريهابراهيمخېل","name":"قريه ابراهيم خېل"},
{"feature":"PPLA2","type":"N","lat":35.05352,"lon":69.256539,"abbr":"IBRAHIMKHAN","name":"Ibrahim Khan"},
{"feature":"PPLA2","type":"V","lat":35.05352,"lon":69.256539,"abbr":"EBRAHIMKHAN","name":"Ebrahimkhan"},
{"feature":"PPLA2","type":"V","lat":35.05352,"lon":69.256539,"abbr":"IBRAKHIMKHAN","name":"Ibrakhimkhan"},
{"feature":"PPLA2","type":"NS","lat":35.05352,"lon":69.256539,"abbr":"ابراهیمخان","name":"ابراهیم خان"},
{"feature":"PPLA2","type":"N","lat":35.221562,"lon":69.213967,"abbr":"BAGHEMAIDAN","name":"Bagh-e Maidan"},
{"feature":"PPLA2","type":"V","lat":35.221562,"lon":69.213967,"abbr":"BAGHEMEYDAN","name":"Bagh-e Meydan"},
{"feature":"PPLA2","type":"V","lat":35.221562,"lon":69.213967,"abbr":"BAGHEMAYDAN","name":"Baghe Maydan"},
{"feature":"PPLA2","type":"V","lat":35.221562,"lon":69.213967,"abbr":"BAGIMAYDAN","name":"Bagi-Maydan"},
{"feature":"PPLA2","type":"VS","lat":35.221562,"lon":69.213967,"abbr":"بغميدان","name":"بغ ميدان"},
{"feature":"PPLA2","type":"NS","lat":35.221562,"lon":69.213967,"abbr":"باغمیدان","name":"باغ میدان"},
{"feature":"PPLA2","type":"NS","lat":35.039747,"lon":69.006854,"abbr":"قاشقال","name":"قاشقال"},
{"feature":"PPLA2","type":"VS","lat":35.039747,"lon":69.006854,"abbr":"شنواری","name":"شنواری"},
{"feature":"PPLA2","type":"N","lat":35.039747,"lon":69.006854,"abbr":"QASHQAL","name":"Qashqal"},
{"feature":"PPLA2","type":"V","lat":35.039747,"lon":69.006854,"abbr":"SHINWARI","name":"Shinwari"},
{"feature":"PPLA2","type":"V","lat":35.039747,"lon":69.006854,"abbr":"QARYAHYEQASHQAL","name":"Qaryah-ye Qashqal"},
{"feature":"PPLA2","type":"V","lat":35.039747,"lon":69.006854,"abbr":"KASHKAL","name":"Kashkal'"},
{"feature":"PPLA2","type":"V","lat":35.039747,"lon":69.006854,"abbr":"SHINVARI","name":"Shinvari"},
{"feature":"PPLA2","type":"V","lat":35.039747,"lon":69.006854,"abbr":"SHENWARI","name":"Shenwari"},
{"feature":"PPLA2","type":"V","lat":35.039747,"lon":69.006854,"abbr":"KAKSHAL","name":"Kakshal"},
{"feature":"PPLA2","type":"V","lat":35.039747,"lon":69.006854,"abbr":"QASQAL","name":"Qasqal"},
{"feature":"PPLA2","type":"V","lat":35.039747,"lon":69.006854,"abbr":"SHENVARI","name":"Shenvari"},
{"feature":"PPLA2","type":"VS","lat":35.039747,"lon":69.006854,"abbr":"قريهقاشقال","name":"قريه قاشقال"},
{"feature":"PPLA2","type":"V","lat":35.039747,"lon":69.006854,"abbr":"SINWAR","name":"Sinwar"},
{"feature":"PPLA2","type":"V","lat":35.039747,"lon":69.006854,"abbr":"SENWARI","name":"Senwari"},
{"feature":"PPLA2","type":"V","lat":35.039747,"lon":69.006854,"abbr":"QAQSHAL","name":"Qaqshal"},
{"feature":"PPLA2","type":"V","lat":34.790947,"lon":69.475037,"abbr":"QARYAHYEDANDAR","name":"Qaryah-ye Dandar"},
{"feature":"PPLA2","type":"VS","lat":34.790947,"lon":69.475037,"abbr":"قريهدنډر","name":"قريه دنډر"},
{"feature":"PPLA2","type":"N","lat":34.790947,"lon":69.475037,"abbr":"DANDAR","name":"Dandar"},
{"feature":"PPLA2","type":"V","lat":34.790947,"lon":69.475037,"abbr":"DANDAR","name":"Dandar"},
{"feature":"PPLA2","type":"VS","lat":34.790947,"lon":69.475037,"abbr":"دندار","name":"دندار"},
{"feature":"PPLA2","type":"NS","lat":34.790947,"lon":69.475037,"abbr":"ډنډر","name":"ډنډر"},
{"feature":"PPLA2","type":"V","lat":36.130684,"lon":68.708286,"abbr":"BAGLAN","name":"Baglan"},
{"feature":"PPLA2","type":"NS","lat":36.130684,"lon":68.708286,"abbr":"بغلان","name":"بغلان"},
{"feature":"PPLA2","type":"V","lat":36.130684,"lon":68.708286,"abbr":"SANAATI","name":"Sana`ati"},
{"feature":"PPLA2","type":"VS","lat":36.130684,"lon":68.708286,"abbr":"صناعتی","name":"صناعتی"},
{"feature":"PPLA2","type":"VS","lat":36.130684,"lon":68.708286,"abbr":"بغلانجديد","name":"بغلان جديد"},
{"feature":"PPLA2","type":"V","lat":36.130684,"lon":68.708286,"abbr":"BAGHLANEJADID","name":"Baghlan-e Jadid"},
{"feature":"PPLA2","type":"V","lat":36.130684,"lon":68.708286,"abbr":"BAGHLIN","name":"Baghlin"},
{"feature":"PPLA2","type":"N","lat":36.130684,"lon":68.708286,"abbr":"BAGHLAN","name":"Baghlan"},
{"feature":"PPLA2","type":"V","lat":36.130684,"lon":68.708286,"abbr":"BAGOLAGGO","name":"Bagolaggo"},
{"feature":"PPLA2","type":"VS","lat":36.130684,"lon":68.708286,"abbr":"БАГЛАН","name":"Баглан"},